{"version": 0.6, "generator": "Overpass API 0.7.62.11 87bfad18", "osm3s": {"timestamp_osm_base": "2026-04-08T15:19:30Z", "copyright": "The data included in this document is from www.openstreetmap.org. The data is made available under ODbL."}, "elements": [{"type": "node", "id": 368622407, "lat": 37.6033425, "lon": 126.9538429, "tags": {"alt_name:ko": "\uc0c1\uba85\uc0ac\ub300\ubd80\uc18d\uc5ec\uc790\uace0\ub4f1\ud559\uad50", "amenity": "school", "isced:level": "3", "name": "\uc0c1\uba85\ub300\ud559\uad50 \uc0ac\ubc94\ub300\ud559 \ubd80\uc18d\uc5ec\uc790\uace0\ub4f1\ud559\uad50", "name:en": "Sangmyeong University Busok Womens High School", "name:ko": "\uc0c1\uba85\ub300\ud559\uad50 \uc0ac\ubc94\ub300\ud559 \ubd80\uc18d\uc5ec\uc790\uace0\ub4f1\ud559\uad50", "name:ko-Latn": "Sangmyeongdaehakgyo Sabeomdaehak Busokyeojagodeunghakgyo"}}, {"type": "node", "id": 368622883, "lat": 37.578086, "lon": 127.013902, "tags": {"amenity": "school", "isced:level": "3", "name": "\uc11c\uc6b8\uc815\ubcf4\uc0b0\uc5c5\uace0\ub4f1\ud559\uad50", "name:en": "Seoul Information Industry High School", "name:ja": "\u30bd\u30a6\u30eb\u60c5\u5831\u7523\u696d\u9ad8\u7b49\u5b66\u6821", "name:ko": "\uc11c\uc6b8\uc815\ubcf4\uc0b0\uc5c5\uace0\ub4f1\ud559\uad50", "name:ko-Latn": "Seouljeongbosaneopgodeunghakgyo"}}, {"type": "node", "id": 368623187, "lat": 37.574339, "lon": 126.962573, "tags": {"amenity": "school", "isced:level": "2;3", "name": "\ub300\uc2e0\uc911\uace0\ub4f1\ud559\uad50", "name:en": "Daesinjung High School", "name:ko": "\ub300\uc2e0\uc911\uace0\ub4f1\ud559\uad50", "name:ko-Latn": "Daesinjunggodeunghakgyo"}}, {"type": "node", "id": 368638884, "lat": 37.572375, "lon": 127.014181, "tags": {"amenity": "bank", "atm": "yes", "name": "\ub3d9\uc11c\uc6b8\ub18d\ud611", "name:en": "Dong Seoul Nonghyup", "name:ja": "\u6771\u30bd\u30a6\u30eb\u8fb2\u5354", "name:ko": "\ub3d9\uc11c\uc6b8\ub18d\ud611", "name:ko-Latn": "Dongseoullonghyeop"}}, {"type": "node", "id": 368650195, "lat": 37.6017392, "lon": 126.954885, "tags": {"amenity": "university", "name": "\uc0c1\uba85\ub300\ud559\uad50 \uc11c\uc6b8\ucea0\ud37c\uc2a4", "name:en": "Sangmyeong University Seoul Campus", "name:ja": "\u7965\u660e\u5927\u5b66\u6821 \u30bd\u30a6\u30eb\u30ad\u30e3\u30f3\u30d1\u30b9", "name:ko": "\uc0c1\uba85\ub300\ud559\uad50 \uc11c\uc6b8\ucea0\ud37c\uc2a4", "name:ko-Latn": "Sangmyeongdaehakgyo Seoulkaempeoseu"}}, {"type": "node", "id": 368650543, "lat": 37.5870398, "lon": 126.9869243}, {"type": "node", "id": 368652190, "lat": 37.574697, "lon": 127.022472, "tags": {"amenity": "university", "name": "\uc11c\uc6b8\uc7a5\uc2e0\ub300\ud559\uad50", "name:en": "Seoul Jangsin University", "name:ko": "\uc11c\uc6b8\uc7a5\uc2e0\ub300\ud559\uad50", "name:ko-Latn": "Seouljangsindaehakgyo"}}, {"type": "node", "id": 368652569, "lat": 37.5795917, "lon": 126.9882318}, {"type": "node", "id": 368652571, "lat": 37.573671, "lon": 126.964473, "tags": {"amenity": "library", "name": "\uc0ac\ud68c\uacfc\ud559\ub3c4\uc11c\uad00", "name:en": "Social Science Library", "name:ja": "\u793e\u4f1a\u79d1\u5b66\u56f3\u66f8\u9928", "name:ko": "\uc0ac\ud68c\uacfc\ud559\ub3c4\uc11c\uad00", "name:ko-Latn": "Sahoegwahakdoseogwan"}}, {"type": "node", "id": 368652920, "lat": 37.590259, "lon": 126.997752, "tags": {"amenity": "library", "name": "\uc11d\ucc9c\ubb38\ud654\uad00\ubb38\uace0", "name:en": "Seokcheonmunhwagwan Library", "name:ko": "\uc11d\ucc9c\ubb38\ud654\uad00\ubb38\uace0", "name:ko-Latn": "Seokcheonmunhwagwanmungo"}}, {"type": "node", "id": 368652922, "lat": 37.58079, "lon": 127.011783, "tags": {"amenity": "library", "name": "\uc30d\uc6a9\uc544\ud30c\ud2b82\ub2e8\uc9c0\ubb38\uace0", "name:en": "Ssangyong Apt. 2 Complex Library", "name:ko": "\uc30d\uc6a9\uc544\ud30c\ud2b82\ub2e8\uc9c0\ubb38\uace0", "name:ko-Latn": "Ssangyongapateu 2 Danjimungo"}}, {"type": "node", "id": 368654150, "lat": 37.5778887, "lon": 127.0156142, "tags": {"amenity": "library", "name": "\uc22d\uc7781\ub3d9\ubb38\uace0", "name:en": "Sungin 1 Dong Library", "name:ja": "\u5d07\u4ec11\u6d1e\u6587\u5eab", "name:ko": "\uc22d\uc7781\ub3d9\ubb38\uace0", "name:ko-Latn": "Sungin 1 Dongmungo"}}, {"type": "node", "id": 368654161, "lat": 37.580391, "lon": 127.013725, "tags": {"amenity": "library", "name": "\uc30d\uc6a9\uc544\ud30c\ud2b81\ub2e8\uc9c0\ubb38\uace0", "name:en": "Ssangyong Apt. 1 Complex Library", "name:ko": "\uc30d\uc6a9\uc544\ud30c\ud2b81\ub2e8\uc9c0\ubb38\uace0", "name:ko-Latn": "Ssangyongapateu 1 Danjimungo"}}, {"type": "node", "id": 368737766, "lat": 37.5688076, "lon": 126.9855408, "tags": {"amenity": "dentist", "healthcare": "dentist", "name": "\ubcf4\uc2a4\ud1a4\uce58\uacfc\uc758\uc6d0", "name:en": "Boseuton Dental Clinic", "name:ja": "\u30dc\u30b9\u30c8\u30f3\u6b6f\u79d1", "name:ko": "\ubcf4\uc2a4\ud1a4\uce58\uacfc", "name:ko-Latn": "Boseutonchigwa"}}, {"type": "node", "id": 368740127, "lat": 37.58401, "lon": 126.9981, "tags": {"amenity": "dentist", "healthcare": "dentist", "name": "\uc608\ub2e4\uc6b4\uce58\uacfc\uc758\uc6d0", "name:en": "Yedaun Dental Clinic", "name:ko": "\uc608\ub2e4\uc6b4\uce58\uacfc\uc758\uc6d0", "name:ko-Latn": "Yedaunchigwauiwon"}}, {"type": "node", "id": 368875200, "lat": 37.5858865, "lon": 127.0007223, "tags": {"addr:city": "\uc11c\uc6b8\ud2b9\ubcc4\uc2dc", "addr:district": "\uc885\ub85c\uad6c", "addr:housenumber": "1", "addr:postcode": "03075", "addr:street": "\ud61c\ud654\ub85c", "addr:subdistrict": "\ud61c\ud654\ub3d9", "amenity": "post_office", "name": "\uc11c\uc6b8\ud61c\ud654\ub3d9\uc6b0\uccb4\uad6d", "name:en": "Hyehwadong Post Office", "name:ja": "\u6075\u5316\u6d1e\u90f5\u4fbf\u5c40", "name:ko": "\uc11c\uc6b8\ud61c\ud654\ub3d9\uc6b0\uccb4\uad6d", "name:ko-Latn": "Hyehwadongucheguk"}}, {"type": "node", "id": 368875319, "lat": 37.6014, "lon": 126.9612795, "tags": {"addr:city": "\uc11c\uc6b8\ud2b9\ubcc4\uc2dc", "addr:district": "\uc885\ub85c\uad6c", "addr:housenumber": "258", "addr:postcode": "03018", "addr:street": "\uc138\uac80\uc815\ub85c", "addr:subdistrict": "\uc2e0\uc601\ub3d9", "amenity": "post_office", "name": "\uc11c\uc6b8\uc138\uac80\uc815\uc6b0\uccb4\uad6d", "name:en": "Segeomjeong Post Office", "name:ko": "\uc11c\uc6b8\uc138\uac80\uc815\uc6b0\uccb4\uad6d", "name:ko-Latn": "Segeomjeongucheguk"}}, {"type": "node", "id": 368875384, "lat": 37.5764717, "lon": 126.9847985, "tags": {"addr:city": "\uc11c\uc6b8\ud2b9\ubcc4\uc2dc", "addr:district": "\uc885\ub85c\uad6c", "addr:housenumber": "49", "addr:postcode": "03060", "addr:street": "\uc728\uace1\ub85c", "addr:subdistrict": "\uc548\uad6d\ub3d9", "amenity": "post_office", "name": "\uc11c\uc6b8\uc548\uad6d\ub3d9\uc6b0\uccb4\uad6d", "name:en": "Angukdong Post Office", "name:ja": "\u5b89\u56fd\u6d1e\u90f5\u4fbf\u5c40", "name:ko": "\uc11c\uc6b8\uc548\uad6d\ub3d9\uc6b0\uccb4\uad6d", "name:ko-Latn": "Angukdongucheguk", "phone": "+82 02-735-2005"}}, {"type": "node", "id": 368875413, "lat": 37.5780143, "lon": 127.0155715, "tags": {"addr:city": "\uc11c\uc6b8\ud2b9\ubcc4\uc2dc", "addr:district": "\uc885\ub85c\uad6c", "addr:housenumber": "88", "addr:postcode": "03108", "addr:street": "\uc9c0\ubd09\ub85c", "addr:subdistrict": "\uc22d\uc778\ub3d9", "amenity": "post_office", "name": "\uc11c\uc6b8\uc22d\uc778\ub3d9\uc6b0\uccb4\uad6d", "name:en": "Sungindong Post Office", "name:ja": "\u5d07\u4ec1\u6d1e\u90f5\u4fbf\u5c40", "name:ko": "\uc11c\uc6b8\uc22d\uc778\ub3d9\uc6b0\uccb4\uad6d", "name:ko-Latn": "Sungindongucheguk", "source": "https://ko.wikipedia.org/wiki/\ub300\ud55c\ubbfc\uad6d\uc758_\uc6b0\uccb4\uad6d_\ubaa9\ub85d"}}, {"type": "node", "id": 368875436, "lat": 37.5707276, "lon": 126.9889123, "tags": {"addr:city": "\uc11c\uc6b8\ud2b9\ubcc4\uc2dc", "addr:district": "\uc885\ub85c\uad6c", "addr:housenumber": "8", "addr:postcode": "03140", "addr:street": "\uc885\ub85c17\uae38", "addr:subdistrict": "\uc885\ub85c2\uac00", "amenity": "post_office", "name": "\uc11c\uc6b8\uc885\ub85c2\uac00\uc6b0\uccb4\uad6d", "name:en": "Jongno 2 Ga Post Office", "name:ja": "\u9418\u8def2\u8857\u90f5\u4fbf\u5c40", "name:ko": "\uc11c\uc6b8\uc885\ub85c2\uac00\uc6b0\uccb4\uad6d", "name:ko-Latn": "Jongno 2 Gaucheguk", "opening_hours": "Mo-Fr 09:00-16:30"}}, {"type": "node", "id": 368875497, "lat": 37.5711747, "lon": 127.0008836, "tags": {"addr:city": "\uc11c\uc6b8\ud2b9\ubcc4\uc2dc", "addr:district": "\uc885\ub85c\uad6c", "addr:housenumber": "207-1", "addr:postcode": "03129", "addr:street": "\uc885\ub85c", "addr:subdistrict": "\uc885\ub85c5\uac00", "amenity": "post_office", "name": "\uc11c\uc6b8\uc885\ub85c5\uac00\uc6b0\uccb4\uad6d", "name:en": "Jongno 5 Ga Post Office", "name:ja": "\u9418\u8def5\u8857\u90f5\u4fbf\u5c40", "name:ko": "\uc11c\uc6b8\uc885\ub85c5\uac00\uc6b0\uccb4\uad6d", "name:ko-Latn": "Jongno 5 Gaucheguk", "source": "https://ko.wikipedia.org/wiki/\ub300\ud55c\ubbfc\uad6d\uc758_\uc6b0\uccb4\uad6d_\ubaa9\ub85d"}}, {"type": "node", "id": 368875800, "lat": 37.6023628, "lon": 126.9546011, "tags": {"addr:city": "\uc11c\uc6b8\ud2b9\ubcc4\uc2dc", "addr:district": "\uc885\ub85c\uad6c", "addr:housenumber": "20 \uc0ac\ubc94\ub300\ud559\uad00 \uc9c0\ud558 1\uce35", "addr:postcode": "03016", "addr:street": "\ud64d\uc9c0\ubb382\uae38", "amenity": "post_office", "name": "\uc0c1\uba85\ub300\ud559\uad50\uc6b0\ud3b8\ucde8\uae09\uad6d", "name:en": "Sangmyeong University Post Office", "name:ko": "\uc0c1\uba85\ub300\ud559\uad50\uc6b0\ud3b8\ucde8\uae09\uad6d", "name:ko-Latn": "Sangmyeongdaehakgyoucheguk"}}, {"type": "node", "id": 368875820, "lat": 37.5793229, "lon": 126.9995787, "tags": {"addr:city": "\uc11c\uc6b8\ud2b9\ubcc4\uc2dc", "addr:district": "\uc885\ub85c\uad6c", "addr:floor": "B1", "addr:housename": "\uc11c\uc6b8\ub300\ud559\uad50\ubcd1\uc6d0 (\uc2e0)\ubcf8\uad00", "addr:housenumber": "101", "addr:postcode": "03080", "addr:street": "\ub300\ud559\ub85c", "addr:subdistrict": "\uc5f0\uac74\ub3d9", "amenity": "post_office", "name": "\uc11c\uc6b8\ub300\ud559\uad50\ubcd1\uc6d0\uc6b0\uccb4\uad6d", "name:en": "Seoul University Byeongwon Post Office", "name:ko": "\uc11c\uc6b8\ub300\ud559\uad50\ubcd1\uc6d0\uc6b0\uccb4\uad6d", "name:ko-Latn": "Seouldaehakgyobyeongwonucheguk"}}, {"type": "node", "id": 368875969, "lat": 37.5813618, "lon": 127.0120806, "tags": {"addr:city": "\uc11c\uc6b8\ud2b9\ubcc4\uc2dc", "addr:district": "\uc885\ub85c\uad6c", "addr:housenumber": "196", "addr:postcode": "03092", "addr:street": "\ub099\uc0b0\uae38", "addr:subdistrict": "\ucc3d\uc2e0\ub3d9", "amenity": "post_office", "name": "\uc11c\uc6b8\ucc3d\uc2e02\ub3d9\uc6b0\ud3b8\ucde8\uae09\uad6d", "name:en": "Changsin 2 Dong Postal Agency", "name:ko": "\uc11c\uc6b8\ucc3d\uc2e02\ub3d9\uc6b0\ud3b8\ucde8\uae09\uad6d", "name:ko-Latn": "Changsin 2 Dongupyeonchwigeupguk"}}, {"type": "node", "id": 368876178, "lat": 37.5729089, "lon": 127.0061043, "tags": {"addr:city": "\uc11c\uc6b8\ud2b9\ubcc4\uc2dc", "addr:district": "\uc885\ub85c\uad6c", "addr:housenumber": "39", "addr:postcode": "03125", "addr:street": "\uc885\ub85c41\uae38", "addr:subdistrict": "\uc885\ub85c6\uac00", "amenity": "post_office", "name": "\uc11c\uc6b8\uc885\ub85c6\uac00\uc6b0\ud3b8\ucde8\uae09\uad6d", "name:en": "Jongno 6 Ga Postal Agency", "name:ja": "\u9418\u8def6\u8857 \u90f5\u4fbf\u53d6\u6271\u5c40", "name:ko": "\uc11c\uc6b8\uc885\ub85c6\uac00\uc6b0\ud3b8\ucde8\uae09\uad6d", "name:ko-Latn": "Jongno 6 Gaupyeonchwigeupguk"}}, {"type": "node", "id": 368876282, "lat": 37.5723754, "lon": 127.0141811, "tags": {"addr:city": "\uc11c\uc6b8\ud2b9\ubcc4\uc2dc", "addr:district": "\uc885\ub85c\uad6c", "addr:housenumber": "328", "addr:postcode": "03121", "addr:street": "\uc885\ub85c", "addr:subdistrict": "\ucc3d\uc2e0\ub3d9", "amenity": "post_office", "name": "\uc11c\uc6b8\ucc3d\uc2e01\ub3d9\uc6b0\ud3b8\ucde8\uae09\uad6d", "name:en": "Changsin 1 Dong Postal Agency", "name:ja": "\u660c\u4fe1 1\u6d1e \u90f5\u4fbf\u53d6\u6271\u5c40", "name:ko": "\uc11c\uc6b8\ucc3d\uc2e01\ub3d9\uc6b0\ud3b8\ucde8\uae09\uad6d", "name:ko-Latn": "Changsin 1 Dongupyeonchwigeupguk", "source": "https://ko.wikipedia.org/wiki/\ub300\ud55c\ubbfc\uad6d\uc758_\uc6b0\uccb4\uad6d_\ubaa9\ub85d"}}, {"type": "node", "id": 368883159, "lat": 37.5762877, "lon": 126.9991366, "tags": {"addr:city": "\uc11c\uc6b8\ud2b9\ubcc4\uc2dc", "addr:district": "\uc885\ub85c\uad6c", "addr:housenumber": "33-2", "addr:postcode": "03081", "addr:street": "\ucc3d\uacbd\uad81\ub85c22\uae38", "addr:subdistrict": "\uc5f0\uac74\ub3d9", "amenity": "kindergarten", "name": "\uc6d0\ub0a8\uc720\uce58\uc6d0", "name:en": "Wonnam Kindergarten", "name:ko": "\uc6d0\ub0a8\uc720\uce58\uc6d0", "name:ko-Latn": "Wonnamyuchiwon"}}, {"type": "node", "id": 368883544, "lat": 37.575471, "lon": 127.020255, "tags": {"amenity": "kindergarten", "name": "\uc11c\uc6b8\uc22d\uc2e0\ucd08\ub4f1\ud559\uad50\ubcd1\uc124\uc720\uce58\uc6d0", "name:en": "Seoul Sungsin Elementary School Kindergarten", "name:ko": "\uc11c\uc6b8\uc22d\uc2e0\ucd08\ub4f1\ud559\uad50\ubcd1\uc124\uc720\uce58\uc6d0", "name:ko-Latn": "Seoulsungsinchodeunghakgyobyeongseolyuchiwon"}}, {"type": "node", "id": 368922767, "lat": 37.574339, "lon": 126.962573, "tags": {"amenity": "school", "isced:level": "2", "name": "\ub300\uc2e0\uc911\ud559\uad50", "name:en": "Daesin Middle School", "name:ko": "\ub300\uc2e0\uc911\ud559\uad50", "name:ko-Latn": "Daesinjunghakgyo"}}, {"type": "node", "id": 368922831, "lat": 37.579512, "lon": 126.9665842}, {"type": "node", "id": 368922840, "lat": 37.5779336, "lon": 127.0034696}, {"type": "node", "id": 368929501, "lat": 37.577846, "lon": 127.002624}, {"type": "node", "id": 368951106, "lat": 37.575648, "lon": 126.998287, "tags": {"addr:city": "\uc11c\uc6b8\ud2b9\ubcc4\uc2dc", "addr:district": "\uc885\ub85c\uad6c", "addr:housenumber": "176", "addr:postcode": "03127", "addr:street": "\uc728\uace1\ub85c", "addr:subdistrict": "\uc6d0\ub0a8\ub3d9", "amenity": "hospital", "name": "\uc11c\uc6b8\ub300\ubcd1\uc6d0 \uc6d0\ub0a8\ubcc4\uad00", "name:en": "SNUH Wonnam building", "name:ko": "\uc11c\uc6b8\ub300\ubcd1\uc6d0 \uc6d0\ub0a8\ubcc4\uad00", "name:ko-Latn": "Biwonhotel", "tourism": "hotel"}}, {"type": "node", "id": 368954855, "lat": 37.5684619, "lon": 126.9896915, "tags": {"amenity": "restaurant", "name": "\ubd80\uc0b0\ud68c\uc9d1", "name:en": "Busan Fish Restaurant", "name:ko": "\ubd80\uc0b0\ud68c\uc9d1", "name:ko-Latn": "Busanhoejip"}}, {"type": "node", "id": 368954858, "lat": 37.5704233, "lon": 127.0008451, "tags": {"amenity": "restaurant", "name": "\uac15\uc6d0\ud68c\uc9d1", "name:en": "Gangwon Fish Restaurant", "name:ko": "\uac15\uc6d0\ud68c\uc9d1", "name:ko-Latn": "Gangwonhoejip"}}, {"type": "node", "id": 368955026, "lat": 37.569643, "lon": 126.9947, "tags": {"amenity": "restaurant", "name": "\ubbf8\uc0c1\uc0bc\uacc4\ud68c\uc9d1", "name:en": "Misangsamgye Fish Restaurant", "name:ko": "\ubbf8\uc0c1\uc0bc\uacc4\ud68c\uc9d1", "name:ko-Latn": "Misangsamgyehoejip"}}, {"type": "node", "id": 368956289, "lat": 37.573167, "lon": 127.010888, "tags": {"amenity": "restaurant", "name": "\ubaa9\ud3ec\ud69f\uc9d1", "name:en": "Mokpo Fish Restaurant", "name:ko": "\ubaa9\ud3ec\ud69f\uc9d1", "name:ko-Latn": "Mokpohoetjip"}}, {"type": "node", "id": 368956320, "lat": 37.5720241, "lon": 126.9913355, "tags": {"amenity": "restaurant", "name": "\uc885\ub85c\ud69f\uc9d1", "name:en": "Jongno Fish Restaurant", "name:ko": "\uc885\ub85c\ud69f\uc9d1", "name:ko-Latn": "Jongnohoetjip"}}, {"type": "node", "id": 368956361, "lat": 37.571757, "lon": 127.013601, "tags": {"amenity": "restaurant", "name": "\uc870\uc77c\ud69f\uc9d1", "name:en": "Joil Fish Restaurant", "name:ko": "\uc870\uc77c\ud69f\uc9d1", "name:ko-Latn": "Joilhoetjip"}}, {"type": "node", "id": 368956391, "lat": 37.570018, "lon": 126.994298, "tags": {"amenity": "restaurant", "description": "\uba54\ub274 : \uc54c\ud0d5. \ubbf8\uc5ed\uc9c0\ub9ac, \ud68c \ub4f1 \uc8fc\uc18c : \uc11c\uc6b8\uc2dc \uc885\ub85c\uad6c \uc7a5\uc0ac\ub3d9 \ub3c8\ud654\ubb38\ub85c4\uae38 38 \uc5f0\ub77d\ucc98 : 02-2268-1317 \ud734\ubb34 : \uc5c6\uc74c \uc9c0\ub3c4 : https://place.map.kakao.com/9029848", "name": "\ubd80\uc0b0\ud69f\uc9d1", "name:en": "Busan Fish Restaurant", "name:ja": "\u91dc\u5c71\u523a\u8eab\u5e97", "name:ko": "\ubd80\uc0b0\ud69f\uc9d1", "name:ko-Latn": "Busanhoetjip"}}, {"type": "node", "id": 368956407, "lat": 37.573229, "lon": 127.010728, "tags": {"amenity": "restaurant", "name": "\ud574\ucc9c\ud69f\uc9d1", "name:en": "Haecheon Fish Restaurant", "name:ko": "\ud574\ucc9c\ud69f\uc9d1", "name:ko-Latn": "Haecheonhoetjip"}}, {"type": "node", "id": 414686015, "lat": 37.5839419, "lon": 126.9819892}, {"type": "node", "id": 871729229, "lat": 37.5830154, "lon": 126.9942294}, {"type": "node", "id": 892120917, "lat": 37.5871912, "lon": 126.9931549}, {"type": "node", "id": 892120918, "lat": 37.5871439, "lon": 126.9930298}, {"type": "node", "id": 892120923, "lat": 37.587128, "lon": 126.9929814}, {"type": "node", "id": 892120925, "lat": 37.5871039, "lon": 126.9928435}, {"type": "node", "id": 892120926, "lat": 37.587144, "lon": 126.9927058}, {"type": "node", "id": 892120928, "lat": 37.587193, "lon": 126.9925592}, {"type": "node", "id": 892120930, "lat": 37.5872141, "lon": 126.992441}, {"type": "node", "id": 892120931, "lat": 37.5872151, "lon": 126.9923372}, {"type": "node", "id": 892120932, "lat": 37.5871927, "lon": 126.9921767}, {"type": "node", "id": 892120933, "lat": 37.587111, "lon": 126.9919867}, {"type": "node", "id": 892120934, "lat": 37.5870633, "lon": 126.9918066}, {"type": "node", "id": 892120935, "lat": 37.5870209, "lon": 126.9914372}, {"type": "node", "id": 892120939, "lat": 37.5870208, "lon": 126.9912557}, {"type": "node", "id": 892120941, "lat": 37.5870037, "lon": 126.9910876}, {"type": "node", "id": 892120942, "lat": 37.5869475, "lon": 126.9908905}, {"type": "node", "id": 892120944, "lat": 37.5869095, "lon": 126.9907313}, {"type": "node", "id": 892120945, "lat": 37.5868943, "lon": 126.9905648}, {"type": "node", "id": 892120947, "lat": 37.5868886, "lon": 126.9905014}, {"type": "node", "id": 892120979, "lat": 37.5894859, "lon": 126.9922092}, {"type": "node", "id": 892120981, "lat": 37.5894397, "lon": 126.9923229}, {"type": "node", "id": 892120982, "lat": 37.5892803, "lon": 126.9925712}, {"type": "node", "id": 892120983, "lat": 37.5891698, "lon": 126.9926791}, {"type": "node", "id": 892120984, "lat": 37.5890751, "lon": 126.9927941}, {"type": "node", "id": 892120985, "lat": 37.5890936, "lon": 126.9929259}, {"type": "node", "id": 892120986, "lat": 37.5890985, "lon": 126.9930943}, {"type": "node", "id": 892120987, "lat": 37.5890052, "lon": 126.9932127}, {"type": "node", "id": 892120990, "lat": 37.5887911, "lon": 126.993369}, {"type": "node", "id": 892120991, "lat": 37.5887774, "lon": 126.9935685}, {"type": "node", "id": 892120993, "lat": 37.5885658, "lon": 126.9937928}, {"type": "node", "id": 892120994, "lat": 37.5885252, "lon": 126.9938332}, {"type": "node", "id": 892120995, "lat": 37.5887952, "lon": 126.9944788}, {"type": "node", "id": 892120997, "lat": 37.5888129, "lon": 126.9947008}, {"type": "node", "id": 892120998, "lat": 37.5886296, "lon": 126.9948368}, {"type": "node", "id": 892121001, "lat": 37.588501, "lon": 126.9948573}, {"type": "node", "id": 892121002, "lat": 37.5884796, "lon": 126.9947457}, {"type": "node", "id": 892121003, "lat": 37.5883105, "lon": 126.9946405}, {"type": "node", "id": 892121005, "lat": 37.588213, "lon": 126.9946029}, {"type": "node", "id": 892121006, "lat": 37.5880482, "lon": 126.9945271}, {"type": "node", "id": 892121008, "lat": 37.5879689, "lon": 126.9945864}, {"type": "node", "id": 892121010, "lat": 37.5879059, "lon": 126.9947004}, {"type": "node", "id": 892121013, "lat": 37.5871764, "lon": 126.9951847}, {"type": "node", "id": 892121014, "lat": 37.5872655, "lon": 126.9953892}, {"type": "node", "id": 892121017, "lat": 37.5864863, "lon": 126.9956483}, {"type": "node", "id": 892121020, "lat": 37.5863782, "lon": 126.9957123}, {"type": "node", "id": 892121021, "lat": 37.5864157, "lon": 126.9958794}, {"type": "node", "id": 892121022, "lat": 37.5866646, "lon": 126.9958028}, {"type": "node", "id": 892121024, "lat": 37.586706, "lon": 126.9961039}, {"type": "node", "id": 892121025, "lat": 37.5866468, "lon": 126.9961781}, {"type": "node", "id": 892121027, "lat": 37.5864919, "lon": 126.9964491}, {"type": "node", "id": 892121028, "lat": 37.5860957, "lon": 126.9965561}, {"type": "node", "id": 892121031, "lat": 37.5857727, "lon": 126.9966372}, {"type": "node", "id": 892121032, "lat": 37.5857412, "lon": 126.996458}, {"type": "node", "id": 892121033, "lat": 37.5851506, "lon": 126.9966328}, {"type": "node", "id": 892121035, "lat": 37.5848285, "lon": 126.996994}, {"type": "node", "id": 892121036, "lat": 37.5846599, "lon": 126.9958014}, {"type": "node", "id": 892121038, "lat": 37.5849447, "lon": 126.9952952}, {"type": "node", "id": 892121040, "lat": 37.5853197, "lon": 126.9951135}, {"type": "node", "id": 892121041, "lat": 37.5857014, "lon": 126.9948574}, {"type": "node", "id": 892121042, "lat": 37.586557, "lon": 126.9942006}, {"type": "node", "id": 892121043, "lat": 37.5869585, "lon": 126.9939528}, {"type": "node", "id": 892121044, "lat": 37.5871267, "lon": 126.9938326}, {"type": "node", "id": 892121045, "lat": 37.5871828, "lon": 126.9937532}, {"type": "node", "id": 892121047, "lat": 37.5872356, "lon": 126.9936211}, {"type": "node", "id": 892121048, "lat": 37.5872568, "lon": 126.9934612}, {"type": "node", "id": 892121049, "lat": 37.587228, "lon": 126.9932738}, {"type": "node", "id": 1553878207, "lat": 37.5698428, "lon": 126.9790229, "tags": {"amenity": "cafe", "brand": "The Coffee Bean & Tea Leaf", "brand:wikidata": "Q1141384", "cuisine": "coffee_shop", "name": "The Coffee Bean & Tea Leaf", "source": "gps", "takeaway": "yes"}}, {"type": "node", "id": 1553878251, "lat": 37.5696329, "lon": 126.9782536}, {"type": "node", "id": 1553878253, "lat": 37.5696328, "lon": 126.9776923}, {"type": "node", "id": 1553878334, "lat": 37.569991, "lon": 126.9782536}, {"type": "node", "id": 1553878339, "lat": 37.5699911, "lon": 126.9776923}, {"type": "node", "id": 1815457807, "lat": 37.5828775, "lon": 126.9938788}, {"type": "node", "id": 1815457870, "lat": 37.5830138, "lon": 126.9938328}, {"type": "node", "id": 1815457884, "lat": 37.582955, "lon": 126.9942491}, {"type": "node", "id": 1815457896, "lat": 37.5831032, "lon": 126.9939444}, {"type": "node", "id": 1815458018, "lat": 37.583041, "lon": 126.9939648}, {"type": "node", "id": 1815458073, "lat": 37.5830131, "lon": 126.9938344}, {"type": "node", "id": 1918414028, "lat": 37.5841244, "lon": 127.0071218}, {"type": "node", "id": 1918414049, "lat": 37.5860444, "lon": 127.0065976}, {"type": "node", "id": 1918414055, "lat": 37.5865951, "lon": 127.0061744}, {"type": "node", "id": 1918414056, "lat": 37.5869465, "lon": 127.005867}, {"type": "node", "id": 1918414057, "lat": 37.5871445, "lon": 127.0042365}, {"type": "node", "id": 1918414059, "lat": 37.5869513, "lon": 127.0051403}, {"type": "node", "id": 1918414064, "lat": 37.5877676, "lon": 127.0039926}, {"type": "node", "id": 1918414071, "lat": 37.5877228, "lon": 127.0038981}, {"type": "node", "id": 2064307025, "lat": 37.5764941, "lon": 126.9663007}, {"type": "node", "id": 2064307029, "lat": 37.5766508, "lon": 126.9666429}, {"type": "node", "id": 2064307031, "lat": 37.5764704, "lon": 126.9663221}, {"type": "node", "id": 2064307043, "lat": 37.5764757, "lon": 126.9667809}, {"type": "node", "id": 2064307055, "lat": 37.576411, "lon": 126.9661912}, {"type": "node", "id": 2064307066, "lat": 37.5763302, "lon": 126.9664487}, {"type": "node", "id": 2064307068, "lat": 37.5763155, "lon": 126.966467}, {"type": "node", "id": 2279623748, "lat": 37.6030469, "lon": 126.9607311}, {"type": "node", "id": 2279623767, "lat": 37.6027319, "lon": 126.9607009}, {"type": "node", "id": 2279623774, "lat": 37.6026114, "lon": 126.9607154}, {"type": "node", "id": 2279743961, "lat": 37.6068633, "lon": 126.9689403, "tags": {"amenity": "hospital", "name": "\ub85c\uc774\ubcd1\uc6d0"}}, {"type": "node", "id": 2279743973, "lat": 37.6061017, "lon": 126.9670033, "tags": {"amenity": "bank", "name": "\uc0c8\ub9c8\uc744\uae08\uace0"}}, {"type": "node", "id": 2279743982, "lat": 37.6067109, "lon": 126.9695317, "tags": {"amenity": "cafe", "name": "\ucf54\ucf54\ube0c\ub8e8\ub2c8", "wheelchair": "yes"}}, {"type": "node", "id": 2279744004, "lat": 37.6065257, "lon": 126.9669483, "tags": {"amenity": "cafe", "name": "Tart"}}, {"type": "node", "id": 2279744019, "lat": 37.6057844, "lon": 126.9668298, "tags": {"amenity": "cafe", "brand": "\uc2a4\ud0c0\ubc85\uc2a4", "brand:en": "Starbucks", "brand:wikidata": "Q37158", "cuisine": "coffee_shop", "int_name": "Starbucks", "name": "\uc2a4\ud0c0\ubc85\uc2a4", "name:de": "Starbucks", "name:en": "Starbucks", "name:ja": "\u30b9\u30bf\u30fc\u30d0\u30c3\u30af\u30b9", "name:ko": "\uc2a4\ud0c0\ubc85\uc2a4", "name:ru": "\u0421\u0442\u0430\u0440\u0431\u0430\u043a\u0441", "name:zh": "\u661f\u5df4\u514b", "operator": "(\uc8fc)\uc2a4\ud0c0\ubc85\uc2a4\ucee4\ud53c \ucf54\ub9ac\uc544", "payment:american_express": "yes", "payment:coins": "yes", "payment:diners_club": "yes", "payment:discover_card": "yes", "payment:jcb": "yes", "payment:mastercard": "yes", "payment:notes": "yes", "payment:unionpay": "yes", "payment:visa": "yes", "smoking": "no", "website": "http://www.istarbucks.co.kr/index.do"}}, {"type": "node", "id": 2279744037, "lat": 37.6066122, "lon": 126.9668265, "tags": {"amenity": "restaurant", "name": "\ud3c9\ucc3d\uac04\uc7a5\uac8c\uc7a5"}}, {"type": "node", "id": 2279785041, "lat": 37.6015155, "lon": 126.9611332, "tags": {"amenity": "restaurant", "name": "BBQ"}}, {"type": "node", "id": 2279785059, "lat": 37.5998597, "lon": 126.9571109, "tags": {"addr:city": "\uc11c\uc6b8\ud2b9\ubcc4\uc2dc", "addr:district": "\uc885\ub85c\uad6c", "addr:housenumber": "1", "addr:postcode": "03015", "addr:street": "\ud64d\uc9c0\ubb38\uae38", "addr:subdistrict": "\ud64d\uc9c0\ub3d9", "amenity": "restaurant", "name": "\ud314\uc120\uc0dd"}}, {"type": "node", "id": 2279785062, "lat": 37.6006268, "lon": 126.960144, "tags": {"amenity": "restaurant", "name": "\uc1a1\uc2a4\ud0a4\uce5c"}}, {"type": "node", "id": 2282735476, "lat": 37.6040866, "lon": 126.9616588, "tags": {"amenity": "bank", "name": "\uc11c\uc11c\uc6b8\ub18d\ud611 \uc138\uac80\uc815\uc9c0\uc810"}}, {"type": "node", "id": 2282735478, "lat": 37.5986244, "lon": 126.9618229, "tags": {"amenity": "bank", "brand": "\uc6b0\ub9ac\uc740\ud589", "brand:en": "Woori Bank", "brand:ko": "\uc6b0\ub9ac\uc740\ud589", "brand:wikidata": "Q494369", "name": "\uc6b0\ub9ac\uc740\ud589", "name:en": "Woori Bank", "name:ko": "\uc6b0\ub9ac\uc740\ud589"}}, {"type": "node", "id": 2283694459, "lat": 37.6050875, "lon": 126.9653961, "tags": {"addr:city": "\uc11c\uc6b8\ud2b9\ubcc4\uc2dc", "addr:district": "\uc885\ub85c\uad6c", "addr:housenumber": "37", "addr:postcode": "03008", "addr:street": "\ud3c9\ucc3d\ubb38\ud654\ub85c", "addr:subdistrict": "\ud3c9\ucc3d\ub3d9", "amenity": "restaurant", "name": "Toms Bistro"}}, {"type": "node", "id": 2283696457, "lat": 37.6113163, "lon": 126.9777167, "tags": {"amenity": "restaurant", "name": "\ubd81\uc545\uc815", "name:ko": "\ud3c9\ucc3d\ub3d9\ubd81\uc545\uc815\ubcf8\uad00"}}, {"type": "node", "id": 2296738401, "lat": 37.6025581, "lon": 126.9608203}, {"type": "node", "id": 2303566199, "lat": 37.6055966, "lon": 126.9676225}, {"type": "node", "id": 2303566200, "lat": 37.6055505, "lon": 126.967887}, {"type": "node", "id": 2303566201, "lat": 37.6053325, "lon": 126.9680775}, {"type": "node", "id": 2303566210, "lat": 37.6063552, "lon": 126.9694424}, {"type": "node", "id": 2303566211, "lat": 37.6057936, "lon": 126.9677336}, {"type": "node", "id": 2305266994, "lat": 37.6116726, "lon": 126.9563345}, {"type": "node", "id": 2305266995, "lat": 37.6103255, "lon": 126.9564465}, {"type": "node", "id": 2305266996, "lat": 37.6102376, "lon": 126.9556078}, {"type": "node", "id": 2305266997, "lat": 37.6104485, "lon": 126.955528}, {"type": "node", "id": 2305266998, "lat": 37.6111241, "lon": 126.9559384}, {"type": "node", "id": 2305266999, "lat": 37.6116471, "lon": 126.9562489}, {"type": "node", "id": 2305283198, "lat": 37.6042842, "lon": 126.9555778}, {"type": "node", "id": 2305283201, "lat": 37.6042618, "lon": 126.9558473}, {"type": "node", "id": 2305283204, "lat": 37.6042433, "lon": 126.955996}, {"type": "node", "id": 2305283205, "lat": 37.6042256, "lon": 126.9561977}, {"type": "node", "id": 2305283208, "lat": 37.6042495, "lon": 126.9563567}, {"type": "node", "id": 2305283210, "lat": 37.6043912, "lon": 126.9567129}, {"type": "node", "id": 2305283212, "lat": 37.6044771, "lon": 126.9568604}, {"type": "node", "id": 2305283214, "lat": 37.6044639, "lon": 126.9570163}, {"type": "node", "id": 2305299629, "lat": 37.6022772, "lon": 126.9565304}, {"type": "node", "id": 2305299630, "lat": 37.6019809, "lon": 126.9565337}, {"type": "node", "id": 2305299631, "lat": 37.6019729, "lon": 126.9562299}, {"type": "node", "id": 2305299632, "lat": 37.6018089, "lon": 126.9562132}, {"type": "node", "id": 2305299633, "lat": 37.6017243, "lon": 126.9560663}, {"type": "node", "id": 2305299634, "lat": 37.6017745, "lon": 126.9557891}, {"type": "node", "id": 2305299635, "lat": 37.6018909, "lon": 126.9556021}, {"type": "node", "id": 2305299636, "lat": 37.6019147, "lon": 126.9554519}, {"type": "node", "id": 2305299637, "lat": 37.6019042, "lon": 126.9553684}, {"type": "node", "id": 2305299638, "lat": 37.601801, "lon": 126.955148}, {"type": "node", "id": 2305299640, "lat": 37.6017825, "lon": 126.9551046}, {"type": "node", "id": 2305299641, "lat": 37.6016952, "lon": 126.9552081}, {"type": "node", "id": 2305299642, "lat": 37.6015894, "lon": 126.9554252}, {"type": "node", "id": 2305299643, "lat": 37.6014544, "lon": 126.955729}, {"type": "node", "id": 2305299644, "lat": 37.6014227, "lon": 126.9558125}, {"type": "node", "id": 2305299645, "lat": 37.6013116, "lon": 126.9556823}, {"type": "node", "id": 2305299647, "lat": 37.6012349, "lon": 126.9556122}, {"type": "node", "id": 2305299648, "lat": 37.6012825, "lon": 126.9554986}, {"type": "node", "id": 2305299649, "lat": 37.6012111, "lon": 126.9554319}, {"type": "node", "id": 2305299650, "lat": 37.6012851, "lon": 126.955295}, {"type": "node", "id": 2305299651, "lat": 37.6012799, "lon": 126.9550545}, {"type": "node", "id": 2305299652, "lat": 37.601055, "lon": 126.9548575}, {"type": "node", "id": 2305299653, "lat": 37.6009915, "lon": 126.9549644}, {"type": "node", "id": 2305299654, "lat": 37.6005973, "lon": 126.9544902}, {"type": "node", "id": 2305299655, "lat": 37.6008143, "lon": 126.953542}, {"type": "node", "id": 2305299657, "lat": 37.6015312, "lon": 126.9531346}, {"type": "node", "id": 2305299658, "lat": 37.6029438, "lon": 126.9531046}, {"type": "node", "id": 2305299659, "lat": 37.603502, "lon": 126.9534218}, {"type": "node", "id": 2305299660, "lat": 37.6041924, "lon": 126.9534785}, {"type": "node", "id": 2305299661, "lat": 37.6042003, "lon": 126.9546171}, {"type": "node", "id": 2305299662, "lat": 37.6044622, "lon": 126.9552115}, {"type": "node", "id": 2305299664, "lat": 37.6043511, "lon": 126.9554947}, {"type": "node", "id": 2305299665, "lat": 37.6044067, "lon": 126.9571581}, {"type": "node", "id": 2305299666, "lat": 37.6041845, "lon": 126.9572817}, {"type": "node", "id": 2305299667, "lat": 37.6039199, "lon": 126.957462}, {"type": "node", "id": 2305299668, "lat": 37.6037744, "lon": 126.9575588}, {"type": "node", "id": 2305299669, "lat": 37.6034782, "lon": 126.9574853}, {"type": "node", "id": 2305299670, "lat": 37.60333, "lon": 126.9575688}, {"type": "node", "id": 2305299671, "lat": 37.6032295, "lon": 126.9572349}, {"type": "node", "id": 2305299672, "lat": 37.6031448, "lon": 126.9572015}, {"type": "node", "id": 2305299673, "lat": 37.6030337, "lon": 126.9570346}, {"type": "node", "id": 2305299675, "lat": 37.6028565, "lon": 126.9569511}, {"type": "node", "id": 2305299676, "lat": 37.6027004, "lon": 126.956891}, {"type": "node", "id": 2305299677, "lat": 37.602547, "lon": 126.9565705}, {"type": "node", "id": 2305299678, "lat": 37.6024571, "lon": 126.956527}, {"type": "node", "id": 2305299679, "lat": 37.6024227, "lon": 126.9564102}, {"type": "node", "id": 2319081641, "lat": 37.5858757, "lon": 126.9706309}, {"type": "node", "id": 2319081642, "lat": 37.5857491, "lon": 126.9711668}, {"type": "node", "id": 2319081643, "lat": 37.5858854, "lon": 126.9714197}, {"type": "node", "id": 2319081644, "lat": 37.5859745, "lon": 126.9719294}, {"type": "node", "id": 2319081645, "lat": 37.586197, "lon": 126.9721215}, {"type": "node", "id": 2319081646, "lat": 37.5863631, "lon": 126.9724299}, {"type": "node", "id": 2319081647, "lat": 37.5867534, "lon": 126.9724873}, {"type": "node", "id": 2319081648, "lat": 37.5869231, "lon": 126.9729491}, {"type": "node", "id": 2319081649, "lat": 37.5871983, "lon": 126.9730082}, {"type": "node", "id": 2319081650, "lat": 37.587415, "lon": 126.9729491}, {"type": "node", "id": 2319081651, "lat": 37.5880474, "lon": 126.9723506}, {"type": "node", "id": 2319081652, "lat": 37.5876433, "lon": 126.9709319}, {"type": "node", "id": 2319081653, "lat": 37.5876492, "lon": 126.9706733}, {"type": "node", "id": 2319081654, "lat": 37.587415, "lon": 126.9696388}, {"type": "node", "id": 2319081656, "lat": 37.5871499, "lon": 126.9700814}, {"type": "node", "id": 2319081657, "lat": 37.5859977, "lon": 126.970408}, {"type": "node", "id": 2319081658, "lat": 37.5856618, "lon": 126.9707659}, {"type": "node", "id": 2319081971, "lat": 37.590571, "lon": 126.97006}, {"type": "node", "id": 2319081972, "lat": 37.5901494, "lon": 126.9700452}, {"type": "node", "id": 2319081973, "lat": 37.5900733, "lon": 126.9698826}, {"type": "node", "id": 2319081974, "lat": 37.5896576, "lon": 126.9699122}, {"type": "node", "id": 2319081975, "lat": 37.5894572, "lon": 126.9703639}, {"type": "node", "id": 2319081976, "lat": 37.5891336, "lon": 126.9704688}, {"type": "node", "id": 2319081977, "lat": 37.5887266, "lon": 126.9704959}, {"type": "node", "id": 2319081978, "lat": 37.5882874, "lon": 126.9706511}, {"type": "node", "id": 2319081979, "lat": 37.5883577, "lon": 126.9710058}, {"type": "node", "id": 2319081980, "lat": 37.5877286, "lon": 126.9712313}, {"type": "node", "id": 2319081981, "lat": 37.5885041, "lon": 126.9719664}, {"type": "node", "id": 2319081982, "lat": 37.5889198, "lon": 126.9718408}, {"type": "node", "id": 2319081983, "lat": 37.5892594, "lon": 126.9718112}, {"type": "node", "id": 2319081985, "lat": 37.589476, "lon": 126.9717151}, {"type": "node", "id": 2319082171, "lat": 37.5895463, "lon": 126.9695427}, {"type": "node", "id": 2319082172, "lat": 37.5894643, "lon": 126.9691141}, {"type": "node", "id": 2319082173, "lat": 37.5892828, "lon": 126.9691215}, {"type": "node", "id": 2319082174, "lat": 37.5892231, "lon": 126.9689416}, {"type": "node", "id": 2319082175, "lat": 37.5890497, "lon": 126.9690048}, {"type": "node", "id": 2319082176, "lat": 37.5887203, "lon": 126.9688344}, {"type": "node", "id": 2319082177, "lat": 37.5880356, "lon": 126.9693654}, {"type": "node", "id": 2319082750, "lat": 37.5860663, "lon": 126.969812}, {"type": "node", "id": 2319082751, "lat": 37.5861221, "lon": 126.9693535}, {"type": "node", "id": 2319082752, "lat": 37.5861965, "lon": 126.9688786}, {"type": "node", "id": 2319082753, "lat": 37.5862082, "lon": 126.968542}, {"type": "node", "id": 2319082762, "lat": 37.5858769, "lon": 126.9685013}, {"type": "node", "id": 2319082763, "lat": 37.5858279, "lon": 126.9691442}, {"type": "node", "id": 2319082764, "lat": 37.5851259, "lon": 126.9691031}, {"type": "node", "id": 2319082765, "lat": 37.585102, "lon": 126.9696173}, {"type": "node", "id": 2319082766, "lat": 37.5851956, "lon": 126.9696152}, {"type": "node", "id": 2319082767, "lat": 37.5852075, "lon": 126.9699562}, {"type": "node", "id": 2319083274, "lat": 37.5848068, "lon": 126.9669178}, {"type": "node", "id": 2319083275, "lat": 37.5844227, "lon": 126.9669548}, {"type": "node", "id": 2319083276, "lat": 37.5842849, "lon": 126.9672582}, {"type": "node", "id": 2319083277, "lat": 37.5842116, "lon": 126.9676429}, {"type": "node", "id": 2319083278, "lat": 37.5841647, "lon": 126.9682201}, {"type": "node", "id": 2319083279, "lat": 37.584537, "lon": 126.9680129}, {"type": "node", "id": 2319083280, "lat": 37.5849563, "lon": 126.9676799}, {"type": "node", "id": 2319083281, "lat": 37.5848361, "lon": 126.96731}, {"type": "node", "id": 2319084017, "lat": 37.5846983, "lon": 126.9696371}, {"type": "node", "id": 2319084019, "lat": 37.5839477, "lon": 126.9694262}, {"type": "node", "id": 2319084020, "lat": 37.5840621, "lon": 126.9688084}, {"type": "node", "id": 2319095215, "lat": 37.5795869, "lon": 126.9822084}, {"type": "node", "id": 2319095216, "lat": 37.5795294, "lon": 126.9824163}, {"type": "node", "id": 2319095217, "lat": 37.5795889, "lon": 126.9831305}, {"type": "node", "id": 2319095218, "lat": 37.5796286, "lon": 126.9837129}, {"type": "node", "id": 2319095219, "lat": 37.5796741, "lon": 126.9838467}, {"type": "node", "id": 2319095221, "lat": 37.5799357, "lon": 126.9838602}, {"type": "node", "id": 2319095223, "lat": 37.580377, "lon": 126.9840232}, {"type": "node", "id": 2319095224, "lat": 37.5805267, "lon": 126.9837799}, {"type": "node", "id": 2319095225, "lat": 37.5806635, "lon": 126.9837298}, {"type": "node", "id": 2319095227, "lat": 37.5810003, "lon": 126.9839843}, {"type": "node", "id": 2319095228, "lat": 37.5811676, "lon": 126.9840601}, {"type": "node", "id": 2319095229, "lat": 37.5813993, "lon": 126.9840389}, {"type": "node", "id": 2319095231, "lat": 37.5816883, "lon": 126.9837584}, {"type": "node", "id": 2319095232, "lat": 37.5816882, "lon": 126.9836174}, {"type": "node", "id": 2319095233, "lat": 37.5818027, "lon": 126.9834997}, {"type": "node", "id": 2319095234, "lat": 37.5819168, "lon": 126.9834074}, {"type": "node", "id": 2319095235, "lat": 37.5820504, "lon": 126.983229}, {"type": "node", "id": 2319095236, "lat": 37.5820113, "lon": 126.9829924}, {"type": "node", "id": 2319095241, "lat": 37.5814253, "lon": 126.9822371}, {"type": "node", "id": 2319095242, "lat": 37.5811469, "lon": 126.9822132}, {"type": "node", "id": 2319095244, "lat": 37.5809347, "lon": 126.9822102}, {"type": "node", "id": 2319095245, "lat": 37.5808165, "lon": 126.9821605}, {"type": "node", "id": 2319095246, "lat": 37.58058, "lon": 126.9821949}, {"type": "node", "id": 2319095247, "lat": 37.5805528, "lon": 126.9824665}, {"type": "node", "id": 2319095248, "lat": 37.5803516, "lon": 126.982429}, {"type": "node", "id": 2319123687, "lat": 37.6025536, "lon": 126.9612054}, {"type": "node", "id": 2319123689, "lat": 37.602876, "lon": 126.961348}, {"type": "node", "id": 2319123691, "lat": 37.6030509, "lon": 126.9614032}, {"type": "node", "id": 2319123693, "lat": 37.6031712, "lon": 126.9614193}, {"type": "node", "id": 2319123695, "lat": 37.6034226, "lon": 126.9614124}, {"type": "node", "id": 2319123697, "lat": 37.6036044, "lon": 126.9613342}, {"type": "node", "id": 2319123699, "lat": 37.6037329, "lon": 126.9612956}, {"type": "node", "id": 2319123701, "lat": 37.6037655, "lon": 126.9606034}, {"type": "node", "id": 2319123703, "lat": 37.6035596, "lon": 126.96057}, {"type": "node", "id": 2319123705, "lat": 37.6033865, "lon": 126.9605641}, {"type": "node", "id": 2319130967, "lat": 37.5870945, "lon": 126.969767}, {"type": "node", "id": 2322098814, "lat": 37.578588, "lon": 126.9815631}, {"type": "node", "id": 2322098817, "lat": 37.5782399, "lon": 126.9815088}, {"type": "node", "id": 2322098818, "lat": 37.5780107, "lon": 126.9814626}, {"type": "node", "id": 2322098819, "lat": 37.5780162, "lon": 126.9816865}, {"type": "node", "id": 2322098820, "lat": 37.5773041, "lon": 126.9818125}, {"type": "node", "id": 2322098821, "lat": 37.5772892, "lon": 126.9824026}, {"type": "node", "id": 2322098822, "lat": 37.5777335, "lon": 126.9823463}, {"type": "node", "id": 2322098823, "lat": 37.5785346, "lon": 126.9821167}, {"type": "node", "id": 2322098824, "lat": 37.5785341, "lon": 126.9819327}, {"type": "node", "id": 2322098825, "lat": 37.5785837, "lon": 126.9818635}, {"type": "node", "id": 2323326454, "lat": 37.5818988, "lon": 126.9976291}, {"type": "node", "id": 2323326455, "lat": 37.5817857, "lon": 126.9978288}, {"type": "node", "id": 2323326456, "lat": 37.5813037, "lon": 126.9980027}, {"type": "node", "id": 2323326457, "lat": 37.5812658, "lon": 126.9984094}, {"type": "node", "id": 2323326458, "lat": 37.5813541, "lon": 126.9992174}, {"type": "node", "id": 2323326459, "lat": 37.5811701, "lon": 126.9992267}, {"type": "node", "id": 2323326460, "lat": 37.5811701, "lon": 126.9998398}, {"type": "node", "id": 2323326461, "lat": 37.5811757, "lon": 127.0002214}, {"type": "node", "id": 2323326462, "lat": 37.5812601, "lon": 127.0007266}, {"type": "node", "id": 2323326463, "lat": 37.5813508, "lon": 127.0007348}, {"type": "node", "id": 2323326464, "lat": 37.581714, "lon": 127.0009582}, {"type": "node", "id": 2323326465, "lat": 37.5817307, "lon": 127.0018097}, {"type": "node", "id": 2323326466, "lat": 37.5800125, "lon": 127.0019715}, {"type": "node", "id": 2323326471, "lat": 37.5780416, "lon": 127.0010937}, {"type": "node", "id": 2323326472, "lat": 37.5776883, "lon": 127.0002763}, {"type": "node", "id": 2323326473, "lat": 37.5774601, "lon": 127.0006107}, {"type": "node", "id": 2323326474, "lat": 37.5768344, "lon": 127.0006411}, {"type": "node", "id": 2323326475, "lat": 37.5771844, "lon": 126.9995721}, {"type": "node", "id": 2323326476, "lat": 37.5770585, "lon": 126.9991907}, {"type": "node", "id": 2323326477, "lat": 37.5768491, "lon": 126.9988645}, {"type": "node", "id": 2323326478, "lat": 37.5767019, "lon": 126.99801}, {"type": "node", "id": 2323326479, "lat": 37.577254, "lon": 126.9977406}, {"type": "node", "id": 2323326480, "lat": 37.5772617, "lon": 126.9973045}, {"type": "node", "id": 2323326481, "lat": 37.5783845, "lon": 126.9969303}, {"type": "node", "id": 2323326482, "lat": 37.5802879, "lon": 126.9966461}, {"type": "node", "id": 2323326483, "lat": 37.5808683, "lon": 126.9966724}, {"type": "node", "id": 2323326484, "lat": 37.5811995, "lon": 126.9968861}, {"type": "node", "id": 2323326485, "lat": 37.5795776, "lon": 127.0023981}, {"type": "node", "id": 2323326488, "lat": 37.5770723, "lon": 127.0045253}, {"type": "node", "id": 2323326489, "lat": 37.5768422, "lon": 127.0025375}, {"type": "node", "id": 2323326490, "lat": 37.5769507, "lon": 127.0024458}, {"type": "node", "id": 2323326498, "lat": 37.5797097, "lon": 127.001612}, {"type": "node", "id": 2323326499, "lat": 37.5793879, "lon": 127.0010401}, {"type": "node", "id": 2323326500, "lat": 37.5787419, "lon": 127.0002642}, {"type": "node", "id": 2323326501, "lat": 37.5865319, "lon": 127.0030855}, {"type": "node", "id": 2323326502, "lat": 37.5858672, "lon": 127.0030623}, {"type": "node", "id": 2323326504, "lat": 37.5849268, "lon": 127.0035211}, {"type": "node", "id": 2323326506, "lat": 37.5845152, "lon": 127.0044963}, {"type": "node", "id": 2323326507, "lat": 37.584506, "lon": 127.0047941}, {"type": "node", "id": 2323326508, "lat": 37.5847066, "lon": 127.0049286}, {"type": "node", "id": 2323326509, "lat": 37.5850428, "lon": 127.0054136}, {"type": "node", "id": 2323326511, "lat": 37.5852782, "lon": 127.0058539}, {"type": "node", "id": 2323326512, "lat": 37.5852397, "lon": 127.0059194}, {"type": "node", "id": 2323326513, "lat": 37.5849626, "lon": 127.0059899}, {"type": "node", "id": 2323326514, "lat": 37.5848749, "lon": 127.0057254}, {"type": "node", "id": 2323326515, "lat": 37.5839708, "lon": 127.0061686}, {"type": "node", "id": 2323326516, "lat": 37.5831245, "lon": 127.0064224}, {"type": "node", "id": 2323326517, "lat": 37.5831615, "lon": 127.0069048}, {"type": "node", "id": 2323326518, "lat": 37.5845181, "lon": 127.0068985}, {"type": "node", "id": 2323326519, "lat": 37.584856, "lon": 127.0068364}, {"type": "node", "id": 2323326521, "lat": 37.5870662, "lon": 127.0036523}, {"type": "node", "id": 2323326527, "lat": 37.5797099, "lon": 127.0033539}, {"type": "node", "id": 2401509212, "lat": 37.5774885, "lon": 126.9724587}, {"type": "node", "id": 2401509213, "lat": 37.5775126, "lon": 126.9727374}, {"type": "node", "id": 2401509225, "lat": 37.5775916, "lon": 126.9724445}, {"type": "node", "id": 2401509226, "lat": 37.5776157, "lon": 126.9727233}, {"type": "node", "id": 2401537509, "lat": 37.5794668, "lon": 126.97236}, {"type": "node", "id": 2401537510, "lat": 37.5794751, "lon": 126.9722953}, {"type": "node", "id": 2401537544, "lat": 37.5795408, "lon": 126.972358}, {"type": "node", "id": 2401537546, "lat": 37.5795427, "lon": 126.9723053}, {"type": "node", "id": 2401541000, "lat": 37.5786383, "lon": 126.9717965}, {"type": "node", "id": 2401541001, "lat": 37.5786802, "lon": 126.9719649}, {"type": "node", "id": 2401541003, "lat": 37.5786883, "lon": 126.9717771}, {"type": "node", "id": 2401541004, "lat": 37.5787073, "lon": 126.9717635}, {"type": "node", "id": 2401541007, "lat": 37.5787443, "lon": 126.9717453}, {"type": "node", "id": 2401541013, "lat": 37.57877, "lon": 126.9717373}, {"type": "node", "id": 2401541016, "lat": 37.578807, "lon": 126.9717293}, {"type": "node", "id": 2401541018, "lat": 37.5788557, "lon": 126.971706}, {"type": "node", "id": 2401541019, "lat": 37.5788575, "lon": 126.9718824}, {"type": "node", "id": 2401541020, "lat": 37.5788593, "lon": 126.9718949}, {"type": "node", "id": 2401541021, "lat": 37.5788665, "lon": 126.9718357}, {"type": "node", "id": 2401541022, "lat": 37.5788764, "lon": 126.9718722}, {"type": "node", "id": 2401541023, "lat": 37.5788818, "lon": 126.971698}, {"type": "node", "id": 2401541024, "lat": 37.5788881, "lon": 126.9718266}, {"type": "node", "id": 2401541025, "lat": 37.5788899, "lon": 126.9717481}, {"type": "node", "id": 2401541026, "lat": 37.5789044, "lon": 126.9718221}, {"type": "node", "id": 2401541027, "lat": 37.578917, "lon": 126.9718722}, {"type": "node", "id": 2401541028, "lat": 37.5789269, "lon": 126.971739}, {"type": "node", "id": 2401541029, "lat": 37.5789386, "lon": 126.9718096}, {"type": "node", "id": 2401541030, "lat": 37.578972, "lon": 126.9716673}, {"type": "node", "id": 2401541031, "lat": 37.5789964, "lon": 126.9718574}, {"type": "node", "id": 2401547628, "lat": 37.5792653, "lon": 126.9730727}, {"type": "node", "id": 2401547639, "lat": 37.5792659, "lon": 126.9730906}, {"type": "node", "id": 2401547640, "lat": 37.5792784, "lon": 126.972955}, {"type": "node", "id": 2401547681, "lat": 37.5793554, "lon": 126.972974}, {"type": "node", "id": 2418921964, "lat": 37.5771689, "lon": 126.9726386, "tags": {"addr:city": "\uc11c\uc6b8\ud2b9\ubcc4\uc2dc", "addr:district": "\uc885\ub85c\uad6c", "addr:housenumber": "6", "addr:postcode": "03044", "addr:street": "\uc790\ud558\ubb38\ub85c4\uae38", "addr:subdistrict": "\ud1b5\uc758\ub3d9", "amenity": "cafe", "brand": "\uc2a4\ud0c0\ubc85\uc2a4", "brand:en": "Starbucks", "brand:wikidata": "Q37158", "cuisine": "coffee_shop", "int_name": "Starbucks", "name": "\uc2a4\ud0c0\ubc85\uc2a4 \uacbd\ubcf5\uad81\uc5ed\uc810", "name:de": "Starbucks", "name:en": "Starbucks Gyeongbokgung Palace Branch", "name:ja": "\u30b9\u30bf\u30fc\u30d0\u30c3\u30af\u30b9\u666f\u798f\u5bae\u5e97", "name:ko": "\uc2a4\ud0c0\ubc85\uc2a4", "name:ru": "\u0421\u0442\u0430\u0440\u0431\u0430\u043a\u0441", "name:zh": "\u661f\u5df4\u514b", "official_name": "\uc2a4\ud0c0\ubc85\uc2a4 \uacbd\ubcf5\uad81\uc5ed\uc810", "operator": "(\uc8fc)\uc2a4\ud0c0\ubc85\uc2a4\ucee4\ud53c \ucf54\ub9ac\uc544", "payment:american_express": "yes", "payment:coins": "yes", "payment:diners_club": "yes", "payment:discover_card": "yes", "payment:jcb": "yes", "payment:mastercard": "yes", "payment:notes": "yes", "payment:unionpay": "yes", "payment:visa": "yes", "phone": "+82 02-758-8359", "smoking": "no", "website": "http://www.istarbucks.co.kr/index.do"}}, {"type": "node", "id": 2418941461, "lat": 37.5769843, "lon": 126.966247}, {"type": "node", "id": 2418941474, "lat": 37.5770622, "lon": 126.9661906}, {"type": "node", "id": 2418941493, "lat": 37.5793301, "lon": 126.9647963}, {"type": "node", "id": 2418974022, "lat": 37.6057555, "lon": 126.9701985}, {"type": "node", "id": 2418974024, "lat": 37.6046074, "lon": 126.970035}, {"type": "node", "id": 2418974025, "lat": 37.6047038, "lon": 126.969453}, {"type": "node", "id": 2418974026, "lat": 37.6050014, "lon": 126.9691038}, {"type": "node", "id": 2418974027, "lat": 37.6052068, "lon": 126.9684161}, {"type": "node", "id": 2419893795, "lat": 37.5830986, "lon": 126.9867786}, {"type": "node", "id": 2419893796, "lat": 37.583097, "lon": 126.9868694}, {"type": "node", "id": 2419893797, "lat": 37.5832883, "lon": 126.9867491}, {"type": "node", "id": 2419893798, "lat": 37.5833326, "lon": 126.9868591}, {"type": "node", "id": 2419893799, "lat": 37.5834359, "lon": 126.9868875}, {"type": "node", "id": 2419893800, "lat": 37.5834896, "lon": 126.9863032}, {"type": "node", "id": 2419893801, "lat": 37.5835025, "lon": 126.9866963}, {"type": "node", "id": 2419893802, "lat": 37.5835068, "lon": 126.9871502}, {"type": "node", "id": 2419893803, "lat": 37.5835237, "lon": 126.9876095}, {"type": "node", "id": 2419893804, "lat": 37.5838539, "lon": 126.9876396}, {"type": "node", "id": 2419893805, "lat": 37.5847419, "lon": 126.987301}, {"type": "node", "id": 2419893809, "lat": 37.5861474, "lon": 126.9878043}, {"type": "node", "id": 2419893810, "lat": 37.5861477, "lon": 126.9860941}, {"type": "node", "id": 2419893814, "lat": 37.5866588, "lon": 126.9876573}, {"type": "node", "id": 2419893818, "lat": 37.5865964, "lon": 126.9868252}, {"type": "node", "id": 2419893820, "lat": 37.5866881, "lon": 126.987342}, {"type": "node", "id": 2419990552, "lat": 37.5792641, "lon": 126.9657459}, {"type": "node", "id": 2420388117, "lat": 37.5745996, "lon": 126.9899496, "tags": {"amenity": "bar", "brewery": "yes", "check_date": "2023-04-28", "cuisine": "pizza", "microbrewery": "yes", "name": "Brew 3.15", "name:en": "Brew 3.14", "name:fr": "Brew 3.14", "name:ko": "Brew 3.14", "opening_hours": "17:00-00:00", "outdoor_seating": "yes", "payment:american_express": "yes", "payment:credit_cards": "yes", "payment:debit_cards": "yes", "payment:diners_club": "yes", "payment:discover_card": "yes", "payment:jcb": "yes", "payment:mastercard": "yes", "payment:unionpay": "yes", "payment:visa": "yes", "phone": "+82 70 4178 3014", "short_name": "Brew 3.14", "sorting_name": "Brew 3.14 pi", "source": "survey", "website": "http://facebook.com/brew314", "wheelchair": "yes"}}, {"type": "node", "id": 2446787195, "lat": 37.604843, "lon": 126.961807, "tags": {"amenity": "restaurant", "cuisine": "korean", "name": "\uc790\ud558\ubb38 \ud55c\uc815\uc2dd"}}, {"type": "node", "id": 2447785635, "lat": 37.599329, "lon": 126.958618, "tags": {"amenity": "restaurant", "cuisine": "korean", "name": "\uc11d\ud30c\ub791"}}, {"type": "node", "id": 2447785724, "lat": 37.597856, "lon": 126.962184, "tags": {"addr:city": "\uc11c\uc6b8\ud2b9\ubcc4\uc2dc", "addr:district": "\uc885\ub85c\uad6c", "addr:housenumber": "269", "amenity": "cafe", "name": "\uce74\ud398 \uc138\uac80\uc815"}}, {"type": "node", "id": 2454978020, "lat": 37.5751594, "lon": 126.9869588}, {"type": "node", "id": 2454978025, "lat": 37.5754505, "lon": 126.9886289}, {"type": "node", "id": 2454978027, "lat": 37.5755867, "lon": 126.9868095}, {"type": "node", "id": 2454978028, "lat": 37.5757982, "lon": 126.9877181}, {"type": "node", "id": 2454978029, "lat": 37.5758489, "lon": 126.9885977}, {"type": "node", "id": 2454978031, "lat": 37.5758721, "lon": 126.9884821}, {"type": "node", "id": 2454978034, "lat": 37.575972, "lon": 126.9885097}, {"type": "node", "id": 2454978036, "lat": 37.5759979, "lon": 126.9884079}, {"type": "node", "id": 2454978038, "lat": 37.5760283, "lon": 126.9886321}, {"type": "node", "id": 2454978040, "lat": 37.5760634, "lon": 126.9884343}, {"type": "node", "id": 2454978043, "lat": 37.5764035, "lon": 126.9875424}, {"type": "node", "id": 2454978044, "lat": 37.5764474, "lon": 126.9879518}, {"type": "node", "id": 2454978045, "lat": 37.5764848, "lon": 126.9885538}, {"type": "node", "id": 2454978046, "lat": 37.5764529, "lon": 126.9887365}, {"type": "node", "id": 2454978047, "lat": 37.5766926, "lon": 126.9882854}, {"type": "node", "id": 2454978048, "lat": 37.5767058, "lon": 126.9879715}, {"type": "node", "id": 2454978051, "lat": 37.5768115, "lon": 126.9885011}, {"type": "node", "id": 2454978052, "lat": 37.5768143, "lon": 126.9883079}, {"type": "node", "id": 2454978061, "lat": 37.5772991, "lon": 126.9825387}, {"type": "node", "id": 2454978066, "lat": 37.5774433, "lon": 126.9835259}, {"type": "node", "id": 2454978073, "lat": 37.5776173, "lon": 126.9834901}, {"type": "node", "id": 2454978074, "lat": 37.5775695, "lon": 126.9830993}, {"type": "node", "id": 2454978076, "lat": 37.5776457, "lon": 126.9836808}, {"type": "node", "id": 2454978078, "lat": 37.5776861, "lon": 126.9833996}, {"type": "node", "id": 2454978080, "lat": 37.5777216, "lon": 126.9824697}, {"type": "node", "id": 2454978082, "lat": 37.5777601, "lon": 126.983067}, {"type": "node", "id": 2454978083, "lat": 37.5777832, "lon": 126.9833755}, {"type": "node", "id": 2454978085, "lat": 37.5781989, "lon": 126.9829597}, {"type": "node", "id": 2454978086, "lat": 37.5782385, "lon": 126.9834824}, {"type": "node", "id": 2454978088, "lat": 37.5783895, "lon": 126.9822422}, {"type": "node", "id": 2454978089, "lat": 37.5784094, "lon": 126.9822833}, {"type": "node", "id": 2454978093, "lat": 37.57846, "lon": 126.9822592}, {"type": "node", "id": 2454978095, "lat": 37.5784983, "lon": 126.9824507}, {"type": "node", "id": 2454978098, "lat": 37.5785349, "lon": 126.9824261}, {"type": "node", "id": 2454978099, "lat": 37.5785572, "lon": 126.9825229}, {"type": "node", "id": 2454978100, "lat": 37.5786282, "lon": 126.9828441}, {"type": "node", "id": 2454978118, "lat": 37.5792144, "lon": 126.9853301}, {"type": "node", "id": 2454978123, "lat": 37.5795429, "lon": 126.9851342}, {"type": "node", "id": 2454978124, "lat": 37.579336, "lon": 126.9861054}, {"type": "node", "id": 2454978125, "lat": 37.5798941, "lon": 126.9860916}, {"type": "node", "id": 2454978126, "lat": 37.579913, "lon": 126.9860112}, {"type": "node", "id": 2454978127, "lat": 37.5800128, "lon": 126.9856276}, {"type": "node", "id": 2454978128, "lat": 37.5800374, "lon": 126.9851273}, {"type": "node", "id": 2454978129, "lat": 37.5802381, "lon": 126.9860091}, {"type": "node", "id": 2454978130, "lat": 37.5802463, "lon": 126.9856434}, {"type": "node", "id": 2454978804, "lat": 37.5803169, "lon": 126.9878087}, {"type": "node", "id": 2454978805, "lat": 37.5803848, "lon": 126.9882748}, {"type": "node", "id": 2454978812, "lat": 37.5809638, "lon": 126.9882165}, {"type": "node", "id": 2454978813, "lat": 37.5810259, "lon": 126.9874041}, {"type": "node", "id": 2454978816, "lat": 37.581071, "lon": 126.9874058, "tags": {"barrier": "gate"}}, {"type": "node", "id": 2454978817, "lat": 37.5811325, "lon": 126.9875024}, {"type": "node", "id": 2454978818, "lat": 37.5812631, "lon": 126.9875906}, {"type": "node", "id": 2454978819, "lat": 37.5814147, "lon": 126.9880355}, {"type": "node", "id": 2454978820, "lat": 37.5814839, "lon": 126.9883703}, {"type": "node", "id": 2454978821, "lat": 37.5815278, "lon": 126.9875763}, {"type": "node", "id": 2454978822, "lat": 37.5815854, "lon": 126.9875537}, {"type": "node", "id": 2454978823, "lat": 37.5816808, "lon": 126.9875013}, {"type": "node", "id": 2454978824, "lat": 37.5817394, "lon": 126.9873839}, {"type": "node", "id": 2454978825, "lat": 37.5821521, "lon": 126.988308}, {"type": "node", "id": 2454978826, "lat": 37.5822578, "lon": 126.9874352}, {"type": "node", "id": 2454978827, "lat": 37.5822633, "lon": 126.9875766}, {"type": "node", "id": 2454978828, "lat": 37.5823044, "lon": 126.9881646}, {"type": "node", "id": 2454978829, "lat": 37.5823617, "lon": 126.9876146}, {"type": "node", "id": 2454978830, "lat": 37.5823685, "lon": 126.9876591}, {"type": "node", "id": 2454978831, "lat": 37.5824273, "lon": 126.9879562}, {"type": "node", "id": 2454978832, "lat": 37.5824146, "lon": 126.9876535}, {"type": "node", "id": 2454978833, "lat": 37.5825121, "lon": 126.9879562}, {"type": "node", "id": 2454978834, "lat": 37.5825258, "lon": 126.9881322}, {"type": "node", "id": 2454978835, "lat": 37.5849116, "lon": 126.9875461}, {"type": "node", "id": 2454978836, "lat": 37.5851978, "lon": 126.9875217}, {"type": "node", "id": 2454978837, "lat": 37.5852365, "lon": 126.9876388}, {"type": "node", "id": 2454978838, "lat": 37.5855595, "lon": 126.9878632}, {"type": "node", "id": 2454978839, "lat": 37.5855806, "lon": 126.9879768}, {"type": "node", "id": 2454980025, "lat": 37.5799271, "lon": 126.9823699}, {"type": "node", "id": 2454980039, "lat": 37.5810751, "lon": 126.982172}, {"type": "node", "id": 2471444664, "lat": 37.574661, "lon": 126.9852825, "tags": {"addr:city": "\uc11c\uc6b8\ud2b9\ubcc4\uc2dc", "addr:district": "\uc885\ub85c\uad6c", "addr:housenumber": "14-5", "addr:postcode": "03146", "addr:street": "\uc778\uc0ac\ub3d912\uae38", "addr:subdistrict": "\uad00\ud6c8\ub3d9", "amenity": "restaurant", "cuisine": "Korean,_Vegetable_Cuisine;\ubd88\uad6c\uc774\uc308\ubc25;\ub450\uac1c\uc7a5\uc815\uc2dd;\uc911\ud654\ubcf6\uc74c\uc6b0\ub3d9;\uc21c\ub450\ubd80\uac15\ub41c\uc7a5\ube44\ube54\ubc25", "diet:vegan": "only", "name": "\uc624\uc138\uacc4\ud5a5", "name:en": "Osegyehyang", "name:ko": "\uc624\uc138\uacc4\ud5a5", "opening_hours": "Fr-We 11:30-16:00, 17:00-21:00", "phone": "02-735-7171", "website": "http://go5.co.kr/default/"}}, {"type": "node", "id": 2471445560, "lat": 37.5760692, "lon": 126.9852705, "tags": {"amenity": "hospital", "name": "\ud574\uc815\ubcd1\uc6d0", "name:en": "Haejeong Hospital"}}, {"type": "node", "id": 2518254120, "lat": 37.5775495, "lon": 126.9979001}, {"type": "node", "id": 2518254122, "lat": 37.577726, "lon": 126.9979591}, {"type": "node", "id": 2523833708, "lat": 37.5768692, "lon": 126.9671771}, {"type": "node", "id": 2523833717, "lat": 37.5774934, "lon": 126.9675048}, {"type": "node", "id": 2523833722, "lat": 37.5775349, "lon": 126.9669152}, {"type": "node", "id": 2523833724, "lat": 37.577626, "lon": 126.9661845}, {"type": "node", "id": 2523833726, "lat": 37.5775712, "lon": 126.9667087}, {"type": "node", "id": 2529229973, "lat": 37.5926445, "lon": 126.9659506, "tags": {"addr:city": "\uc11c\uc6b8\ud2b9\ubcc4\uc2dc", "addr:district": "\uc885\ub85c\uad6c", "addr:housenumber": "132", "addr:postcode": "03020", "addr:street": "\ucc3d\uc758\ubb38\ub85c", "addr:subdistrict": "\ubd80\uc554\ub3d9", "amenity": "cafe", "name": "\ud074\ub7fd \uc5d0\uc2a4\ud504\ub808\uc18c", "name:en": "Club Espresso"}}, {"type": "node", "id": 2670978336, "lat": 37.6027926, "lon": 126.9540974, "tags": {"alt_name:ko": "\uc0c1\uba85\uc0ac\ub300\ubd80\uc18d\uc5ec\uc790\uc911\ud559\uad50", "amenity": "school", "isced:level": "2", "name": "\uc0c1\uba85\ub300\ud559\uad50 \uc0ac\ubc94\ub300\ud559 \ubd80\uc18d\uc5ec\uc790\uc911\ud559\uad50", "name:en": "Sangmyeong University Busok Womens Middle School", "name:ko": "\uc0c1\uba85\ub300\ud559\uad50 \uc0ac\ubc94\ub300\ud559 \ubd80\uc18d\uc5ec\uc790\uc911\ud559\uad50", "wikidata": "Q12600462"}}, {"type": "node", "id": 2929389552, "lat": 37.5704914, "lon": 126.9891034, "tags": {"addr:city": "\uc11c\uc6b8\ud2b9\ubcc4\uc2dc", "addr:district": "\uc885\ub85c\uad6c", "addr:street": "\uc885\ub85c", "amenity": "cafe", "cuisine": "coffee_shop", "internet_access": "yes", "name": "Culcom Cafe 24 Hour Coffee Shop", "note": "Bitpay POS", "opening_hours": "24/7", "phone": "+82 2 1577 0553", "website": "http://www.culcom.co.kr/"}}, {"type": "node", "id": 2958982948, "lat": 37.5810302, "lon": 126.9838429}, {"type": "node", "id": 3031738833, "lat": 37.5727689, "lon": 126.9694653, "tags": {"addr:city": "\uc11c\uc6b8\ud2b9\ubcc4\uc2dc", "addr:district": "\uc885\ub85c\uad6c", "addr:housenumber": "39", "addr:postcode": "03176", "addr:street": "\uacbd\ud76c\uad81\uae38", "addr:subdistrict": "\uc2e0\ubb38\ub85c2\uac00", "amenity": "cafe", "cuisine": "coffee_shop", "internet_access": "wlan", "internet_access:fee": "no", "name": "\ucee4\ud53c\uc2a4\ud2b8", "name:en": "Coffeest", "phone": "+82 02-725-5557", "website": "coffeest.com"}}, {"type": "node", "id": 3085481975, "lat": 37.578584, "lon": 126.9712189}, {"type": "node", "id": 3085481976, "lat": 37.5782555, "lon": 126.9713175}, {"type": "node", "id": 3085481977, "lat": 37.5783002, "lon": 126.9715447}, {"type": "node", "id": 3085481978, "lat": 37.5786226, "lon": 126.9714435}, {"type": "node", "id": 3098632944, "lat": 37.5936619, "lon": 126.9660253, "tags": {"amenity": "restaurant", "name": "\uc18c\uc18c\ud55c \ud48d\uacbd", "source": "survey"}}, {"type": "node", "id": 3103399729, "lat": 37.5776838, "lon": 126.9714818}, {"type": "node", "id": 3103399730, "lat": 37.5776085, "lon": 126.9715561}, {"type": "node", "id": 3103399731, "lat": 37.5776373, "lon": 126.9716038}, {"type": "node", "id": 3103399732, "lat": 37.5776767, "lon": 126.9715641}, {"type": "node", "id": 3103399733, "lat": 37.5777222, "lon": 126.9716391}, {"type": "node", "id": 3103399734, "lat": 37.5777581, "lon": 126.9716044}, {"type": "node", "id": 3194747235, "lat": 37.584591, "lon": 126.9820339}, {"type": "node", "id": 3199476773, "lat": 37.5803242, "lon": 126.9825394}, {"type": "node", "id": 3199553300, "lat": 37.582655, "lon": 126.9819119}, {"type": "node", "id": 3199553301, "lat": 37.5826551, "lon": 126.9819584}, {"type": "node", "id": 3199553302, "lat": 37.5826244, "lon": 126.9819586}, {"type": "node", "id": 3199553303, "lat": 37.5826247, "lon": 126.9820383}, {"type": "node", "id": 3199553304, "lat": 37.5827569, "lon": 126.9820375}, {"type": "node", "id": 3199553350, "lat": 37.5829786, "lon": 126.9813858}, {"type": "node", "id": 3199553351, "lat": 37.5829732, "lon": 126.9816277}, {"type": "node", "id": 3199553352, "lat": 37.5830932, "lon": 126.9816319}, {"type": "node", "id": 3199631245, "lat": 37.5801025, "lon": 126.980589}, {"type": "node", "id": 3199631246, "lat": 37.5800761, "lon": 126.9807513}, {"type": "node", "id": 3199631247, "lat": 37.5801782, "lon": 126.9807771}, {"type": "node", "id": 3199631248, "lat": 37.5802485, "lon": 126.9808241}, {"type": "node", "id": 3199631249, "lat": 37.580122, "lon": 126.9807991}, {"type": "node", "id": 3199631250, "lat": 37.5801017, "lon": 126.9809162}, {"type": "node", "id": 3199631251, "lat": 37.5802282, "lon": 126.9809538}, {"type": "node", "id": 3199632043, "lat": 37.5801346, "lon": 126.9810409}, {"type": "node", "id": 3199632044, "lat": 37.580145, "lon": 126.9809526}, {"type": "node", "id": 3199632045, "lat": 37.5800729, "lon": 126.9809391}, {"type": "node", "id": 3199632046, "lat": 37.5800631, "lon": 126.9810231}, {"type": "node", "id": 3199632047, "lat": 37.5800876, "lon": 126.9810304}, {"type": "node", "id": 3199632048, "lat": 37.5800929, "lon": 126.9809907}, {"type": "node", "id": 3199632049, "lat": 37.5801137, "lon": 126.9809946}, {"type": "node", "id": 3199632050, "lat": 37.5801088, "lon": 126.9810361}, {"type": "node", "id": 3226266692, "lat": 37.5834347, "lon": 126.9816742, "tags": {"addr:city": "\uc11c\uc6b8\ud2b9\ubcc4\uc2dc", "addr:district": "\uc885\ub85c\uad6c", "addr:housenumber": "89-1", "addr:postcode": "03054", "addr:street": "\uc0bc\uccad\ub85c", "addr:subdistrict": "\ud314\ud310\ub3d9", "amenity": "cafe", "name": "\uc735", "name:en": "Yung", "name:ja": "\u30ab\u30d5\u30a7 \u30e6\u30fc"}}, {"type": "node", "id": 3226266693, "lat": 37.5835323, "lon": 126.9817064, "tags": {"addr:city": "\uc11c\uc6b8\ud2b9\ubcc4\uc2dc", "addr:district": "\uc885\ub85c\uad6c", "addr:housenumber": "91", "addr:postcode": "03054", "addr:street": "\uc0bc\uccad\ub85c", "addr:subdistrict": "\uc0bc\uccad\ub3d9", "amenity": "restaurant", "cuisine": "korean", "indoor_seating": "yes", "name": "\uccad\uc218\uc815(Cheongsujeong)", "opening_hours:signed": "no", "outdoor_seating": "no", "phone": "0507-1366-8293", "wheelchair": "no"}}, {"type": "node", "id": 3226347567, "lat": 37.5827564, "lon": 126.9819112}, {"type": "node", "id": 3226392426, "lat": 37.5838148, "lon": 126.9819624}, {"type": "node", "id": 3226392427, "lat": 37.5837902, "lon": 126.9821479}, {"type": "node", "id": 3226392428, "lat": 37.5839173, "lon": 126.9821747}, {"type": "node", "id": 3226392434, "lat": 37.5842145, "lon": 126.982101}, {"type": "node", "id": 3226392435, "lat": 37.5841949, "lon": 126.9822067}, {"type": "node", "id": 3226392436, "lat": 37.5842419, "lon": 126.9822206}, {"type": "node", "id": 3226392460, "lat": 37.5846148, "lon": 126.9818632}, {"type": "node", "id": 3226393361, "lat": 37.5844617, "lon": 126.9818537}, {"type": "node", "id": 3226393362, "lat": 37.584447, "lon": 126.9819458}, {"type": "node", "id": 3226393400, "lat": 37.5851068, "lon": 126.9819451, "tags": {"addr:city": "\uc11c\uc6b8\ud2b9\ubcc4\uc2dc", "addr:district": "\uc885\ub85c\uad6c", "addr:housenumber": "109", "addr:postcode": "03049", "addr:street": "\uc0bc\uccad\ub85c", "addr:subdistrict": "\uc0bc\uccad\ub3d9", "amenity": "cafe", "name": "\ucee4\ud53c\ube48 \uc0bc\uccad\ub3d9\uc810", "name:en": "Coffee Bean Samcheongdong Branch", "name:ja": "\u30b3\u30fc\u30d2\u30fc \u30d3\u30fc\u30f3 \u4e09\u6e05\u6d1e\u5e97", "phone": "+82 02-730-5177", "website": "www.coffeebeankorea.com"}}, {"type": "node", "id": 3226393421, "lat": 37.5853236, "lon": 126.9817257}, {"type": "node", "id": 3226393423, "lat": 37.5853483, "lon": 126.9819364}, {"type": "node", "id": 3226393424, "lat": 37.585387, "lon": 126.9819203}, {"type": "node", "id": 3226393568, "lat": 37.5862518, "lon": 126.9817791}, {"type": "node", "id": 3226393569, "lat": 37.5862504, "lon": 126.981868}, {"type": "node", "id": 3226393570, "lat": 37.5863225, "lon": 126.9818699}, {"type": "node", "id": 3226402219, "lat": 37.5872207, "lon": 126.9814188}, {"type": "node", "id": 3226402220, "lat": 37.5872237, "lon": 126.9815397}, {"type": "node", "id": 3226402221, "lat": 37.5871967, "lon": 126.9815408}, {"type": "node", "id": 3226402222, "lat": 37.5871986, "lon": 126.9816197}, {"type": "node", "id": 3226402223, "lat": 37.5872919, "lon": 126.9816161}, {"type": "node", "id": 3226447462, "lat": 37.5878086, "lon": 126.981502, "tags": {"addr:city": "\uc11c\uc6b8\ud2b9\ubcc4\uc2dc", "addr:district": "\uc885\ub85c\uad6c", "addr:housenumber": "141", "addr:postcode": "03049", "addr:street": "\uc0bc\uccad\ub85c", "addr:subdistrict": "\uc0bc\uccad\ub3d9", "amenity": "restaurant", "cuisine": "italian;coffee_shop", "ele": "1", "name": "\uc2ac\ub85c\uc6b0\ud30c\ud06c", "name:en": "Slow Park", "name:ja": "\u30b9\u30ed\u30fc\u30d1\u30fc\u30af", "name:ko": "\uc2ac\ub85c\uc6b0\ud30c\ud06c", "phone": "+82 02-739-8797"}}, {"type": "node", "id": 3226447463, "lat": 37.5879171, "lon": 126.9814928, "tags": {"addr:city": "\uc11c\uc6b8\ud2b9\ubcc4\uc2dc", "addr:district": "\uc885\ub85c\uad6c", "addr:housenumber": "141", "addr:postcode": "03049", "addr:street": "\uc0bc\uccad\ub85c", "addr:subdistrict": "\uc0bc\uccad\ub3d9", "amenity": "restaurant", "cuisine": "regional;korean", "ele": "2", "name": "\uccad\uc6b0\ub9bc", "name:en": "Cheongwoorim", "phone": "+82 02-737-9210", "website": "www.02-737-9211.kti114.net"}}, {"type": "node", "id": 3226447472, "lat": 37.587287, "lon": 126.9814162}, {"type": "node", "id": 3226509021, "lat": 37.5869876, "lon": 126.9815205, "tags": {"addr:city": "\uc11c\uc6b8\ud2b9\ubcc4\uc2dc", "addr:district": "\uc885\ub85c\uad6c", "addr:housenumber": "129", "addr:postcode": "03049", "addr:street": "\uc0bc\uccad\ub85c", "addr:subdistrict": "\uc0bc\uccad\ub3d9", "amenity": "restaurant", "cuisine": "indian", "name": "\uc634 \ub808\uc2a4\ud1a0\ub791 & \uce74\ud398", "name:en": "Om Restaurants & Cafes", "name:ja": "\u30aa\u30fc\u30e0 \u30ec\u30b9\u30c8\u30e9\u30f3 & \u30ab\u30d5\u30a7", "phone": "+82 02-730-8848", "website": "omfood.kr"}}, {"type": "node", "id": 3226509024, "lat": 37.5869105, "lon": 126.9819234}, {"type": "node", "id": 3226509025, "lat": 37.5869072, "lon": 126.98187}, {"type": "node", "id": 3226509026, "lat": 37.5868249, "lon": 126.9818781}, {"type": "node", "id": 3226509027, "lat": 37.5868365, "lon": 126.9820685}, {"type": "node", "id": 3226509028, "lat": 37.5869425, "lon": 126.9820581}, {"type": "node", "id": 3226509033, "lat": 37.5867425, "lon": 126.9815256, "tags": {"addr:city": "\uc11c\uc6b8\ud2b9\ubcc4\uc2dc", "addr:district": "\uc885\ub85c\uad6c", "addr:housenumber": "127", "addr:postcode": "03049", "addr:street": "\uc0bc\uccad\ub85c", "addr:subdistrict": "\uc0bc\uccad\ub3d9", "amenity": "restaurant", "cuisine": "regional", "name": "\uc628\ub9c8\uc744", "name:en": "Onmaeul", "phone": "+82 02-738-4231"}}, {"type": "node", "id": 3226509037, "lat": 37.586506, "lon": 126.98154, "tags": {"addr:city": "\uc11c\uc6b8\ud2b9\ubcc4\uc2dc", "addr:district": "\uc885\ub85c\uad6c", "addr:housenumber": "123", "addr:street": "\uc0bc\uccad\ub85c", "amenity": "cafe", "cuisine": "dessert;coffee_shop", "ele": "1", "name": "\uae30\uc57c\ub9c8", "name:en": "Kiyama", "phone": "+82 02-737-9360"}}, {"type": "node", "id": 3226531302, "lat": 37.586324, "lon": 126.9817811}, {"type": "node", "id": 3226531313, "lat": 37.5861361, "lon": 126.9817807}, {"type": "node", "id": 3226531314, "lat": 37.5861367, "lon": 126.9818914}, {"type": "node", "id": 3226531315, "lat": 37.5862073, "lon": 126.9818895}, {"type": "node", "id": 3226531316, "lat": 37.5862098, "lon": 126.9817805}, {"type": "node", "id": 3227569171, "lat": 37.5856046, "lon": 126.9816681}, {"type": "node", "id": 3227569172, "lat": 37.585673, "lon": 126.9816231, "tags": {"addr:city": "\uc11c\uc6b8\ud2b9\ubcc4\uc2dc", "addr:district": "\uc885\ub85c\uad6c", "addr:housenumber": "113-2", "addr:postcode": "03049", "addr:street": "\uc0bc\uccad\ub85c", "addr:subdistrict": "\uc0bc\uccad\ub3d9", "amenity": "restaurant", "cuisine": "japanese", "name": "\uc640\ub178"}}, {"type": "node", "id": 3227569173, "lat": 37.5854964, "lon": 126.9817404, "tags": {"addr:city": "\uc11c\uc6b8\ud2b9\ubcc4\uc2dc", "addr:district": "\uc885\ub85c\uad6c", "addr:housenumber": "113", "addr:postcode": "03049", "addr:street": "\uc0bc\uccad\ub85c", "addr:subdistrict": "\uc0bc\uccad\ub3d9", "amenity": "cafe", "cuisine": "ice_cream", "ele": "1", "name": "\ube59\ube59\ube59 \uc0bc\uccad\uc810", "name:en": "BingBing Samcheong Branch", "name:ja": "\u30d3\u30f3\u30d3\u30f3\u30d3\u30f3 \u4e09\u6e05\u5e97", "name:ko": "\ube59\ube59\ube59 \uc0bc\uccad\uc810", "phone": "+82 02-725-7191", "website": "cityfood.co.kr/h.php?id=29994&page_mode="}}, {"type": "node", "id": 3227569178, "lat": 37.5853699, "lon": 126.9817218}, {"type": "node", "id": 3227569187, "lat": 37.5852782, "lon": 126.9820682}, {"type": "node", "id": 3227569188, "lat": 37.5853001, "lon": 126.9821573}, {"type": "node", "id": 3227569189, "lat": 37.5853862, "lon": 126.9821236}, {"type": "node", "id": 3227569190, "lat": 37.5853643, "lon": 126.9820345}, {"type": "node", "id": 3227569207, "lat": 37.5848531, "lon": 126.9821824}, {"type": "node", "id": 3227569208, "lat": 37.5848561, "lon": 126.9822941}, {"type": "node", "id": 3227569209, "lat": 37.5849376, "lon": 126.9822906}, {"type": "node", "id": 3227569211, "lat": 37.5849346, "lon": 126.9821789}, {"type": "node", "id": 3227569224, "lat": 37.5845469, "lon": 126.9821997}, {"type": "node", "id": 3227569225, "lat": 37.5845463, "lon": 126.9823196}, {"type": "node", "id": 3227569226, "lat": 37.5846347, "lon": 126.9823203}, {"type": "node", "id": 3227569227, "lat": 37.5846353, "lon": 126.9822004}, {"type": "node", "id": 3227569232, "lat": 37.5844429, "lon": 126.982167}, {"type": "node", "id": 3227569233, "lat": 37.5844268, "lon": 126.9822923}, {"type": "node", "id": 3227569234, "lat": 37.5845107, "lon": 126.9823094}, {"type": "node", "id": 3227569235, "lat": 37.5845267, "lon": 126.9821841}, {"type": "node", "id": 3227569238, "lat": 37.5843828, "lon": 126.9818958, "tags": {"addr:city": "\uc11c\uc6b8\ud2b9\ubcc4\uc2dc", "addr:district": "\uc885\ub85c\uad6c", "addr:housenumber": "101", "addr:postcode": "03049", "addr:street": "\uc0bc\uccad\ub85c", "addr:subdistrict": "\uc0bc\uccad\ub3d9", "amenity": "restaurant", "cuisine": "japanese", "ele": "1", "name": "\uc2a4\uc2dc\uace0", "name:en": "Sushi Go", "name:ja": "\u3059\u3057\u540e", "name:ko": "\uc2a4\uc2dc\uace0", "phone": "+82 02-375-9801", "website": "https://sushigo.modoo.at/"}}, {"type": "node", "id": 3227569239, "lat": 37.5842882, "lon": 126.9818286, "tags": {"addr:city": "\uc11c\uc6b8\ud2b9\ubcc4\uc2dc", "addr:district": "\uc885\ub85c\uad6c", "addr:housenumber": "99-1", "addr:postcode": "03049", "addr:street": "\uc0bc\uccad\ub85c", "addr:subdistrict": "\uc0bc\uccad\ub3d9", "amenity": "bank", "atm": "yes", "ele": "1", "name": "\uc0bc\uccad\uc0c8\ub9c8\uc744\uae08\uace0 \ubcf8\uc810", "name:en": "Samcheong Saemaul Bank", "name:ja": "\u4e09\u6e05 \u30bb\u30de\u30a6\u30eb\u91d1\u5eab \u672c\u5e97", "name:ko": "\uc0bc\uccad\uc0c8\ub9c8\uc744\uae08\uace0 \ubcf8\uc810", "phone": "+82 02-733-2670"}}, {"type": "node", "id": 3227569246, "lat": 37.5842616, "lon": 126.982115}, {"type": "node", "id": 3261670554, "lat": 37.5843287, "lon": 126.9823067}, {"type": "node", "id": 3261670555, "lat": 37.5843106, "lon": 126.9824224}, {"type": "node", "id": 3261670556, "lat": 37.5843927, "lon": 126.9824429}, {"type": "node", "id": 3261676666, "lat": 37.5844108, "lon": 126.9823272}, {"type": "node", "id": 3261781688, "lat": 37.5836, "lon": 126.9814266, "tags": {"addr:city": "\uc11c\uc6b8\ud2b9\ubcc4\uc2dc", "addr:district": "\uc885\ub85c\uad6c", "addr:housenumber": "42", "addr:postcode": "03054", "addr:street": "\ud314\ud310\uae38", "addr:subdistrict": "\uc0bc\uccad\ub3d9", "amenity": "cafe", "cuisine": "coffee_shop", "internet_access": "wlan", "name": "\ub77c\ub04c\ub808", "name:en": "La Cl\u00e9 Jazz Club", "phone": "+82 2 734 7752"}}, {"type": "node", "id": 3262662797, "lat": 37.5830986, "lon": 126.98139}, {"type": "node", "id": 3267131261, "lat": 37.5869341, "lon": 126.9819211}, {"type": "node", "id": 3274370906, "lat": 37.575434, "lon": 126.9868651}, {"type": "node", "id": 3274370957, "lat": 37.5756558, "lon": 126.9871219}, {"type": "node", "id": 3528033993, "lat": 37.571205, "lon": 126.9762911, "tags": {"addr:city": "\uc11c\uc6b8\ud2b9\ubcc4\uc2dc", "addr:district": "\uc885\ub85c\uad6c", "addr:housenumber": "167", "addr:postcode": "03183", "addr:street": "\uc138\uc885\ub300\ub85c", "addr:subdistrict": "\uc138\uc885\ub85c", "amenity": "cafe", "branch": "\uad11\ud654\ubb38R\uc810", "brand": "\uc2a4\ud0c0\ubc85\uc2a4", "brand:en": "Starbucks", "brand:ko": "\uc2a4\ud0c0\ubc85\uc2a4", "brand:wikidata": "Q37158", "cuisine": "coffee_shop", "indoor_seating": "yes", "int_name": "Starbucks", "name": "\uc2a4\ud0c0\ubc85\uc2a4", "name:de": "Starbucks", "name:en": "Starbucks", "name:ja": "\u30b9\u30bf\u30fc\u30d0\u30c3\u30af\u30b9", "name:ko": "\uc2a4\ud0c0\ubc85\uc2a4", "name:ru": "\u0421\u0442\u0430\u0440\u0431\u0430\u043a\u0441", "name:zh": "\u661f\u5df4\u514b", "operator": "(\uc8fc)\uc2a4\ud0c0\ubc85\uc2a4\ucee4\ud53c \ucf54\ub9ac\uc544", "outdoor_seating": "no", "payment:american_express": "yes", "payment:coins": "yes", "payment:diners_club": "yes", "payment:discover_card": "yes", "payment:jcb": "yes", "payment:mastercard": "yes", "payment:notes": "yes", "payment:unionpay": "yes", "payment:visa": "yes", "phone": "+82 02-758-8036", "smoking": "no", "takeaway": "yes", "website": "http://www.istarbucks.co.kr/index.do"}}, {"type": "node", "id": 3529892793, "lat": 37.572537, "lon": 127.01478, "tags": {"amenity": "cafe", "brand": "\uc694\uac70\ud504\ub808\uc18c", "brand:en": "Yogerpresso", "brand:ko": "\uc694\uac70\ud504\ub808\uc18c", "brand:wikidata": "Q28699804", "cuisine": "coffee_shop", "name": "\uc694\uac70\ud504\ub808\uc18c", "name:en": "Yogerpresso", "name:ko": "\uc694\uac70\ud504\ub808\uc18c", "shop": "bakery", "takeaway": "yes"}}, {"type": "node", "id": 3546582975, "lat": 37.5796913, "lon": 127.0044622}, {"type": "node", "id": 3549321960, "lat": 37.5833295, "lon": 127.007387}, {"type": "node", "id": 3549321964, "lat": 37.5839291, "lon": 127.0071302}, {"type": "node", "id": 3612318223, "lat": 37.5744595, "lon": 126.9843274}, {"type": "node", "id": 3612318224, "lat": 37.5743954, "lon": 126.9843935}, {"type": "node", "id": 3612318225, "lat": 37.5744453, "lon": 126.9845017}, {"type": "node", "id": 3612318226, "lat": 37.574608, "lon": 126.9844877}, {"type": "node", "id": 3612318249, "lat": 37.574131, "lon": 126.9850717}, {"type": "node", "id": 3612318250, "lat": 37.5741586, "lon": 126.9851179}, {"type": "node", "id": 3612318251, "lat": 37.5741174, "lon": 126.9851572}, {"type": "node", "id": 3612318252, "lat": 37.5740897, "lon": 126.985111}, {"type": "node", "id": 3612318394, "lat": 37.5755985, "lon": 126.9837416, "tags": {"amenity": "cafe", "name": "\uc778\uc0ac\ub3d9\ucc3b\uc9d1"}}, {"type": "node", "id": 3612318405, "lat": 37.5751935, "lon": 126.9843551}, {"type": "node", "id": 3612318406, "lat": 37.5752179, "lon": 126.9844449}, {"type": "node", "id": 3612318407, "lat": 37.5751457, "lon": 126.9844551}, {"type": "node", "id": 3612318408, "lat": 37.5751319, "lon": 126.984384}, {"type": "node", "id": 3612318409, "lat": 37.5753689, "lon": 126.9844248}, {"type": "node", "id": 3612318410, "lat": 37.5754236, "lon": 126.9845543}, {"type": "node", "id": 3612318411, "lat": 37.575339, "lon": 126.9845623}, {"type": "node", "id": 3612318412, "lat": 37.5753374, "lon": 126.9845431}, {"type": "node", "id": 3612318413, "lat": 37.5752706, "lon": 126.9844664}, {"type": "node", "id": 3612318414, "lat": 37.5752706, "lon": 126.9845643}, {"type": "node", "id": 3612318415, "lat": 37.5751669, "lon": 126.9845677}, {"type": "node", "id": 3612318416, "lat": 37.5751611, "lon": 126.9844631}, {"type": "node", "id": 3612391479, "lat": 37.5740447, "lon": 126.9851902}, {"type": "node", "id": 3612391480, "lat": 37.5739915, "lon": 126.9852036}, {"type": "node", "id": 3612391481, "lat": 37.5739379, "lon": 126.9851091}, {"type": "node", "id": 3612391482, "lat": 37.5739952, "lon": 126.9850245}, {"type": "node", "id": 3612391642, "lat": 37.5745847, "lon": 126.9854133}, {"type": "node", "id": 3612443382, "lat": 37.573298, "lon": 126.9860241}, {"type": "node", "id": 3612443383, "lat": 37.5732309, "lon": 126.9860754}, {"type": "node", "id": 3612443384, "lat": 37.5733087, "lon": 126.9862225}, {"type": "node", "id": 3612443385, "lat": 37.5733529, "lon": 126.9861669}, {"type": "node", "id": 3612443412, "lat": 37.5727121, "lon": 126.9865809}, {"type": "node", "id": 3612443413, "lat": 37.5727313, "lon": 126.9866188}, {"type": "node", "id": 3612443414, "lat": 37.5726606, "lon": 126.986676}, {"type": "node", "id": 3612443416, "lat": 37.5726859, "lon": 126.9865418}, {"type": "node", "id": 3613961556, "lat": 37.5726542, "lon": 126.9866841}, {"type": "node", "id": 3613961558, "lat": 37.5726539, "lon": 126.986755}, {"type": "node", "id": 3613961559, "lat": 37.5727392, "lon": 126.9866948}, {"type": "node", "id": 3613961560, "lat": 37.5727174, "lon": 126.9866457}, {"type": "node", "id": 3613961561, "lat": 37.5727673, "lon": 126.9866953}, {"type": "node", "id": 3613961562, "lat": 37.5727792, "lon": 126.9868359}, {"type": "node", "id": 3613961563, "lat": 37.5727053, "lon": 126.9868825}, {"type": "node", "id": 3613961564, "lat": 37.5726636, "lon": 126.9867774}, {"type": "node", "id": 3613961569, "lat": 37.5724782, "lon": 126.9867485}, {"type": "node", "id": 3613961570, "lat": 37.5725767, "lon": 126.9869126}, {"type": "node", "id": 3613961571, "lat": 37.5725644, "lon": 126.9870266}, {"type": "node", "id": 3613961572, "lat": 37.5725214, "lon": 126.9870441}, {"type": "node", "id": 3613961573, "lat": 37.5723964, "lon": 126.9867465}, {"type": "node", "id": 3613962215, "lat": 37.5724266, "lon": 126.9859423}, {"type": "node", "id": 3613962216, "lat": 37.5724677, "lon": 126.9860826}, {"type": "node", "id": 3613962217, "lat": 37.572407, "lon": 126.9861109}, {"type": "node", "id": 3613962218, "lat": 37.5723853, "lon": 126.986037}, {"type": "node", "id": 3613962219, "lat": 37.5723105, "lon": 126.9860719}, {"type": "node", "id": 3613962220, "lat": 37.5723514, "lon": 126.9862115}, {"type": "node", "id": 3613962221, "lat": 37.5722584, "lon": 126.9862548}, {"type": "node", "id": 3613962222, "lat": 37.5722385, "lon": 126.986187}, {"type": "node", "id": 3613962223, "lat": 37.5722765, "lon": 126.9861692}, {"type": "node", "id": 3613962224, "lat": 37.5722361, "lon": 126.9860312}, {"type": "node", "id": 3613962271, "lat": 37.5716215, "lon": 126.9869243}, {"type": "node", "id": 3613962272, "lat": 37.5715524, "lon": 126.9869731}, {"type": "node", "id": 3613962273, "lat": 37.5714335, "lon": 126.9867049}, {"type": "node", "id": 3613962274, "lat": 37.5715163, "lon": 126.9866518}, {"type": "node", "id": 3614348530, "lat": 37.5688141, "lon": 126.9870145}, {"type": "node", "id": 3614348531, "lat": 37.5688065, "lon": 126.987204}, {"type": "node", "id": 3614348532, "lat": 37.5686754, "lon": 126.9871956}, {"type": "node", "id": 3614348533, "lat": 37.5686682, "lon": 126.9873741}, {"type": "node", "id": 3614348534, "lat": 37.568463, "lon": 126.9873609}, {"type": "node", "id": 3614348535, "lat": 37.5684815, "lon": 126.9869009}, {"type": "node", "id": 3614348536, "lat": 37.5686838, "lon": 126.9869139}, {"type": "node", "id": 3614348537, "lat": 37.5686801, "lon": 126.9870059}, {"type": "node", "id": 3614413283, "lat": 37.5699425, "lon": 126.9879441}, {"type": "node", "id": 3614413284, "lat": 37.569826, "lon": 126.9880804}, {"type": "node", "id": 3614413285, "lat": 37.5698223, "lon": 126.9879495}, {"type": "node", "id": 3628667388, "lat": 37.581988, "lon": 127.0034378}, {"type": "node", "id": 3628667389, "lat": 37.5819896, "lon": 127.0036246}, {"type": "node", "id": 3628667390, "lat": 37.5817832, "lon": 127.0036275}, {"type": "node", "id": 3628667391, "lat": 37.5817867, "lon": 127.0034333}, {"type": "node", "id": 3628689071, "lat": 37.581366, "lon": 127.0036677}, {"type": "node", "id": 3628689072, "lat": 37.5814286, "lon": 127.0036702}, {"type": "node", "id": 3628689073, "lat": 37.5814252, "lon": 127.0038043}, {"type": "node", "id": 3628689074, "lat": 37.5813627, "lon": 127.0038018}, {"type": "node", "id": 3628745318, "lat": 37.5809441, "lon": 127.0040704}, {"type": "node", "id": 3628745319, "lat": 37.5810743, "lon": 127.0040645}, {"type": "node", "id": 3628745320, "lat": 37.5810777, "lon": 127.0041838}, {"type": "node", "id": 3628745321, "lat": 37.5809476, "lon": 127.0041898}, {"type": "node", "id": 3630248796, "lat": 37.58187, "lon": 127.0015757}, {"type": "node", "id": 3630248797, "lat": 37.581869, "lon": 127.0017488}, {"type": "node", "id": 3630248798, "lat": 37.5817893, "lon": 127.0017511}, {"type": "node", "id": 3630248799, "lat": 37.5817901, "lon": 127.001578}, {"type": "node", "id": 3630248800, "lat": 37.5819294, "lon": 127.0016165}, {"type": "node", "id": 3630248801, "lat": 37.5819342, "lon": 127.0015421}, {"type": "node", "id": 3630248802, "lat": 37.5820099, "lon": 127.0015501}, {"type": "node", "id": 3630248804, "lat": 37.5820032, "lon": 127.0017022}, {"type": "node", "id": 3630248805, "lat": 37.5818913, "lon": 127.0017439}, {"type": "node", "id": 3630248820, "lat": 37.5822977, "lon": 127.001324}, {"type": "node", "id": 3630248821, "lat": 37.5823276, "lon": 127.0015773}, {"type": "node", "id": 3630248822, "lat": 37.5822172, "lon": 127.0015981}, {"type": "node", "id": 3630248823, "lat": 37.5822012, "lon": 127.001463}, {"type": "node", "id": 3630248824, "lat": 37.582229, "lon": 127.0014578}, {"type": "node", "id": 3630248825, "lat": 37.5822244, "lon": 127.0014193}, {"type": "node", "id": 3630248826, "lat": 37.5822498, "lon": 127.0014145}, {"type": "node", "id": 3630248827, "lat": 37.5822404, "lon": 127.0013348}, {"type": "node", "id": 3630248836, "lat": 37.5821448, "lon": 127.0011957}, {"type": "node", "id": 3630248837, "lat": 37.5822507, "lon": 127.001172}, {"type": "node", "id": 3630248838, "lat": 37.5822697, "lon": 127.0013199}, {"type": "node", "id": 3630248839, "lat": 37.5821164, "lon": 127.0013556}, {"type": "node", "id": 3630248840, "lat": 37.5821026, "lon": 127.0012618}, {"type": "node", "id": 3630248841, "lat": 37.5820885, "lon": 127.0012634}, {"type": "node", "id": 3630248842, "lat": 37.5821048, "lon": 127.0013631}, {"type": "node", "id": 3630248843, "lat": 37.5820738, "lon": 127.0013711}, {"type": "node", "id": 3630248844, "lat": 37.5820534, "lon": 127.0012455}, {"type": "node", "id": 3630248845, "lat": 37.5821371, "lon": 127.0012238}, {"type": "node", "id": 3630248846, "lat": 37.5821472, "lon": 127.0012831}, {"type": "node", "id": 3630248847, "lat": 37.5822258, "lon": 127.0012661}, {"type": "node", "id": 3630248848, "lat": 37.5822231, "lon": 127.0012374}, {"type": "node", "id": 3630248849, "lat": 37.5821556, "lon": 127.0012513}, {"type": "node", "id": 3630255006, "lat": 37.580132, "lon": 127.004148}, {"type": "node", "id": 3630255007, "lat": 37.5801348, "lon": 127.0043912}, {"type": "node", "id": 3630255008, "lat": 37.5800482, "lon": 127.0043928}, {"type": "node", "id": 3630255009, "lat": 37.5800454, "lon": 127.0041497}, {"type": "node", "id": 3630255014, "lat": 37.5801303, "lon": 127.0040454}, {"type": "node", "id": 3630255015, "lat": 37.5801295, "lon": 127.0041217}, {"type": "node", "id": 3630255016, "lat": 37.5801062, "lon": 127.0041214}, {"type": "node", "id": 3630255017, "lat": 37.580107, "lon": 127.004045}, {"type": "node", "id": 3630263974, "lat": 37.5802576, "lon": 127.0044737}, {"type": "node", "id": 3630263975, "lat": 37.5804001, "lon": 127.0044791}, {"type": "node", "id": 3630263976, "lat": 37.580449, "lon": 127.0045408}, {"type": "node", "id": 3630263977, "lat": 37.5804487, "lon": 127.0045967}, {"type": "node", "id": 3630263978, "lat": 37.58023, "lon": 127.0045113}, {"type": "node", "id": 3630263979, "lat": 37.5802296, "lon": 127.004595}, {"type": "node", "id": 3630267768, "lat": 37.5820406, "lon": 127.0042018}, {"type": "node", "id": 3630267769, "lat": 37.5821568, "lon": 127.0042024}, {"type": "node", "id": 3630267770, "lat": 37.5821565, "lon": 127.00429}, {"type": "node", "id": 3630267771, "lat": 37.5820403, "lon": 127.0042894}, {"type": "node", "id": 3630267780, "lat": 37.5821969, "lon": 127.0043277}, {"type": "node", "id": 3630267781, "lat": 37.5823571, "lon": 127.004333}, {"type": "node", "id": 3630267782, "lat": 37.5823549, "lon": 127.0044388}, {"type": "node", "id": 3630267783, "lat": 37.5821947, "lon": 127.0044335}, {"type": "node", "id": 3630267788, "lat": 37.5826489, "lon": 127.0043104}, {"type": "node", "id": 3630267789, "lat": 37.5826521, "lon": 127.0044176}, {"type": "node", "id": 3630267790, "lat": 37.5825363, "lon": 127.0044231}, {"type": "node", "id": 3630267791, "lat": 37.5825342, "lon": 127.0042675}, {"type": "node", "id": 3630267792, "lat": 37.5825767, "lon": 127.0042514}, {"type": "node", "id": 3630267912, "lat": 37.5807868, "lon": 127.0044256}, {"type": "node", "id": 3630267913, "lat": 37.5808881, "lon": 127.004396}, {"type": "node", "id": 3630267914, "lat": 37.5809018, "lon": 127.0044707}, {"type": "node", "id": 3630267915, "lat": 37.5808005, "lon": 127.0045003}, {"type": "node", "id": 3630269593, "lat": 37.5825809, "lon": 127.0042863}, {"type": "node", "id": 3630269594, "lat": 37.5826128, "lon": 127.0042755}, {"type": "node", "id": 3630269595, "lat": 37.5826171, "lon": 127.0043158}, {"type": "node", "id": 3630269596, "lat": 37.5825292, "lon": 127.004467}, {"type": "node", "id": 3630269597, "lat": 37.5826638, "lon": 127.0044579}, {"type": "node", "id": 3630269598, "lat": 37.5826679, "lon": 127.0045539}, {"type": "node", "id": 3630269599, "lat": 37.5826397, "lon": 127.0045558}, {"type": "node", "id": 3630269600, "lat": 37.5826412, "lon": 127.0045897}, {"type": "node", "id": 3630269601, "lat": 37.582564, "lon": 127.004595}, {"type": "node", "id": 3630269602, "lat": 37.5825609, "lon": 127.0045231}, {"type": "node", "id": 3630269603, "lat": 37.5825317, "lon": 127.0045251}, {"type": "node", "id": 3630271476, "lat": 37.5828956, "lon": 127.0038897}, {"type": "node", "id": 3630271477, "lat": 37.5829445, "lon": 127.0039353}, {"type": "node", "id": 3630271478, "lat": 37.5830018, "lon": 127.0039943}, {"type": "node", "id": 3630271479, "lat": 37.5830448, "lon": 127.0040827}, {"type": "node", "id": 3630271480, "lat": 37.583125, "lon": 127.0040205}, {"type": "node", "id": 3630271481, "lat": 37.5830826, "lon": 127.0039353}, {"type": "node", "id": 3630271482, "lat": 37.5830103, "lon": 127.0038575}, {"type": "node", "id": 3630271483, "lat": 37.5829636, "lon": 127.0038361}, {"type": "node", "id": 3630271484, "lat": 37.5829296, "lon": 127.0038575}, {"type": "node", "id": 3630275048, "lat": 37.5819493, "lon": 127.0022086}, {"type": "node", "id": 3630275049, "lat": 37.5819598, "lon": 127.0023476}, {"type": "node", "id": 3630275050, "lat": 37.5818255, "lon": 127.0023638}, {"type": "node", "id": 3630275051, "lat": 37.581815, "lon": 127.0022248}, {"type": "node", "id": 3630275093, "lat": 37.5825738, "lon": 127.0025551}, {"type": "node", "id": 3630275094, "lat": 37.5825747, "lon": 127.0026986}, {"type": "node", "id": 3630275095, "lat": 37.5824313, "lon": 127.0027001}, {"type": "node", "id": 3630275096, "lat": 37.582431, "lon": 127.0026486}, {"type": "node", "id": 3630275097, "lat": 37.58249, "lon": 127.002648}, {"type": "node", "id": 3630275098, "lat": 37.5824894, "lon": 127.002556}, {"type": "node", "id": 3630275121, "lat": 37.5821913, "lon": 127.0024434}, {"type": "node", "id": 3630275122, "lat": 37.5821766, "lon": 127.0026546}, {"type": "node", "id": 3630275123, "lat": 37.5820839, "lon": 127.0026443}, {"type": "node", "id": 3630275124, "lat": 37.5820869, "lon": 127.0026006}, {"type": "node", "id": 3630275125, "lat": 37.5820383, "lon": 127.0025952}, {"type": "node", "id": 3630275126, "lat": 37.5820468, "lon": 127.0024729}, {"type": "node", "id": 3630275135, "lat": 37.5819203, "lon": 127.0027485}, {"type": "node", "id": 3630275136, "lat": 37.5819204, "lon": 127.0028879}, {"type": "node", "id": 3630275137, "lat": 37.5818098, "lon": 127.002888}, {"type": "node", "id": 3630275138, "lat": 37.5818077, "lon": 127.0027512}, {"type": "node", "id": 3630291022, "lat": 37.5834296, "lon": 127.0031091}, {"type": "node", "id": 3630291023, "lat": 37.5834238, "lon": 127.0031877}, {"type": "node", "id": 3630291024, "lat": 37.5833001, "lon": 127.0031731}, {"type": "node", "id": 3630291025, "lat": 37.5832194, "lon": 127.0031423}, {"type": "node", "id": 3630291026, "lat": 37.5831863, "lon": 127.0030893}, {"type": "node", "id": 3630291027, "lat": 37.5831978, "lon": 127.0029369}, {"type": "node", "id": 3630291028, "lat": 37.5833767, "lon": 127.0029479}, {"type": "node", "id": 3630291029, "lat": 37.5833713, "lon": 127.0030948}, {"type": "node", "id": 3630291045, "lat": 37.5829832, "lon": 127.0034272}, {"type": "node", "id": 3630291046, "lat": 37.5830704, "lon": 127.0037169}, {"type": "node", "id": 3630291047, "lat": 37.5829939, "lon": 127.0037196}, {"type": "node", "id": 3630291048, "lat": 37.5829067, "lon": 127.0037947}, {"type": "node", "id": 3630291049, "lat": 37.5829012, "lon": 127.0034291}, {"type": "node", "id": 3630291050, "lat": 37.5829684, "lon": 127.0037652}, {"type": "node", "id": 3630425072, "lat": 37.5828009, "lon": 127.0023481}, {"type": "node", "id": 3630425073, "lat": 37.5827941, "lon": 127.002793}, {"type": "node", "id": 3630425074, "lat": 37.5827368, "lon": 127.0027916}, {"type": "node", "id": 3630425075, "lat": 37.5827377, "lon": 127.0027308}, {"type": "node", "id": 3630425076, "lat": 37.5827002, "lon": 127.0027299}, {"type": "node", "id": 3630425077, "lat": 37.5827011, "lon": 127.0026753}, {"type": "node", "id": 3630425078, "lat": 37.5826656, "lon": 127.0026744}, {"type": "node", "id": 3630425079, "lat": 37.5826706, "lon": 127.002345}, {"type": "node", "id": 3630553276, "lat": 37.5810698, "lon": 127.0046698}, {"type": "node", "id": 3630553277, "lat": 37.5811919, "lon": 127.004669}, {"type": "node", "id": 3630553278, "lat": 37.5811923, "lon": 127.00476}, {"type": "node", "id": 3630553279, "lat": 37.5810702, "lon": 127.0047609}, {"type": "node", "id": 3630602437, "lat": 37.578127, "lon": 127.004581}, {"type": "node", "id": 3630602438, "lat": 37.5781281, "lon": 127.0047471}, {"type": "node", "id": 3630602439, "lat": 37.5780649, "lon": 127.0047458}, {"type": "node", "id": 3630602440, "lat": 37.5780661, "lon": 127.0045801}, {"type": "node", "id": 3631049437, "lat": 37.5704213, "lon": 127.0058253}, {"type": "node", "id": 3631049438, "lat": 37.5704311, "lon": 127.0056487}, {"type": "node", "id": 3631049439, "lat": 37.5703378, "lon": 127.0056394}, {"type": "node", "id": 3631049467, "lat": 37.5704011, "lon": 127.0062599}, {"type": "node", "id": 3631049468, "lat": 37.5704406, "lon": 127.0064714}, {"type": "node", "id": 3631049469, "lat": 37.5703694, "lon": 127.0064467}, {"type": "node", "id": 3631049470, "lat": 37.570338, "lon": 127.0062786}, {"type": "node", "id": 3631049471, "lat": 37.570859, "lon": 127.0059611}, {"type": "node", "id": 3631049472, "lat": 37.5708768, "lon": 127.0060259}, {"type": "node", "id": 3631049473, "lat": 37.5707462, "lon": 127.0061802}, {"type": "node", "id": 3631049474, "lat": 37.5706818, "lon": 127.005963}, {"type": "node", "id": 3632258235, "lat": 37.570892, "lon": 127.0055956}, {"type": "node", "id": 3632258236, "lat": 37.5708991, "lon": 127.0058419}, {"type": "node", "id": 3632258237, "lat": 37.5707949, "lon": 127.0058439}, {"type": "node", "id": 3632258238, "lat": 37.5707948, "lon": 127.0055977}, {"type": "node", "id": 3632258243, "lat": 37.5705516, "lon": 127.0057113}, {"type": "node", "id": 3632258244, "lat": 37.5706588, "lon": 127.0057195}, {"type": "node", "id": 3632258245, "lat": 37.5706536, "lon": 127.0058296}, {"type": "node", "id": 3632258246, "lat": 37.5705464, "lon": 127.0058214}, {"type": "node", "id": 3632258253, "lat": 37.5703959, "lon": 127.0056162}, {"type": "node", "id": 3632258254, "lat": 37.5705666, "lon": 127.0056293}, {"type": "node", "id": 3632258255, "lat": 37.5705595, "lon": 127.0054569}, {"type": "node", "id": 3632258256, "lat": 37.5703998, "lon": 127.0054461}, {"type": "node", "id": 3632258265, "lat": 37.5707627, "lon": 127.0052771}, {"type": "node", "id": 3632258266, "lat": 37.5707618, "lon": 127.0053994}, {"type": "node", "id": 3632258267, "lat": 37.5707041, "lon": 127.0053987}, {"type": "node", "id": 3632258268, "lat": 37.5707036, "lon": 127.0054786}, {"type": "node", "id": 3632258269, "lat": 37.5706266, "lon": 127.0054777}, {"type": "node", "id": 3632258270, "lat": 37.5706277, "lon": 127.0053322}, {"type": "node", "id": 3632258271, "lat": 37.5706575, "lon": 127.0052758}, {"type": "node", "id": 3632258272, "lat": 37.570545, "lon": 127.0052836}, {"type": "node", "id": 3632258273, "lat": 37.5706427, "lon": 127.0052869}, {"type": "node", "id": 3632258274, "lat": 37.57062, "lon": 127.0053868}, {"type": "node", "id": 3632258275, "lat": 37.5705407, "lon": 127.0053846}, {"type": "node", "id": 3632273326, "lat": 37.5708888, "lon": 127.0050732}, {"type": "node", "id": 3632273327, "lat": 37.5708912, "lon": 127.0052596}, {"type": "node", "id": 3632273328, "lat": 37.5706702, "lon": 127.0052374}, {"type": "node", "id": 3632273329, "lat": 37.5706845, "lon": 127.0050682}, {"type": "node", "id": 3632273334, "lat": 37.5704864, "lon": 127.005123}, {"type": "node", "id": 3632273335, "lat": 37.5704759, "lon": 127.0052762}, {"type": "node", "id": 3632273336, "lat": 37.5704022, "lon": 127.0052702}, {"type": "node", "id": 3632273337, "lat": 37.5704131, "lon": 127.0051162}, {"type": "node", "id": 3632273346, "lat": 37.5703251, "lon": 127.0058153}, {"type": "node", "id": 3632273350, "lat": 37.570321, "lon": 127.0064723}, {"type": "node", "id": 3632273351, "lat": 37.5703378, "lon": 127.0065287}, {"type": "node", "id": 3632273352, "lat": 37.5702689, "lon": 127.0065618}, {"type": "node", "id": 3632273353, "lat": 37.5702511, "lon": 127.0065065}, {"type": "node", "id": 3632273354, "lat": 37.5702347, "lon": 127.0065105}, {"type": "node", "id": 3632273355, "lat": 37.5702545, "lon": 127.0065699}, {"type": "node", "id": 3632273356, "lat": 37.5701127, "lon": 127.0066451}, {"type": "node", "id": 3632273357, "lat": 37.5700738, "lon": 127.0065342}, {"type": "node", "id": 3632273358, "lat": 37.5701135, "lon": 127.0065109}, {"type": "node", "id": 3632273359, "lat": 37.5701342, "lon": 127.0065638}, {"type": "node", "id": 3632273366, "lat": 37.5701687, "lon": 127.0063374}, {"type": "node", "id": 3632273367, "lat": 37.5701708, "lon": 127.0064286}, {"type": "node", "id": 3632273368, "lat": 37.5701028, "lon": 127.0064581}, {"type": "node", "id": 3632273369, "lat": 37.5700977, "lon": 127.0063424}, {"type": "node", "id": 3632273374, "lat": 37.570158, "lon": 127.0061847}, {"type": "node", "id": 3632273375, "lat": 37.5701701, "lon": 127.0063039}, {"type": "node", "id": 3632273376, "lat": 37.5701159, "lon": 127.0063127}, {"type": "node", "id": 3632273377, "lat": 37.5701037, "lon": 127.0061935}, {"type": "node", "id": 3632273729, "lat": 37.5702267, "lon": 127.0058321}, {"type": "node", "id": 3632273730, "lat": 37.5702261, "lon": 127.0058701}, {"type": "node", "id": 3632273731, "lat": 37.5701562, "lon": 127.0058683}, {"type": "node", "id": 3632273732, "lat": 37.5701551, "lon": 127.0059376}, {"type": "node", "id": 3632273733, "lat": 37.5700659, "lon": 127.0059353}, {"type": "node", "id": 3632273734, "lat": 37.5700688, "lon": 127.0057555}, {"type": "node", "id": 3632273735, "lat": 37.570162, "lon": 127.0057579}, {"type": "node", "id": 3632273736, "lat": 37.5701609, "lon": 127.0058304}, {"type": "node", "id": 3632273749, "lat": 37.5701461, "lon": 127.0054404}, {"type": "node", "id": 3632273750, "lat": 37.5701387, "lon": 127.0055397}, {"type": "node", "id": 3632273751, "lat": 37.5700797, "lon": 127.0055327}, {"type": "node", "id": 3632273752, "lat": 37.5700871, "lon": 127.0054334}, {"type": "node", "id": 3793809178, "lat": 37.5767908, "lon": 126.9856102, "tags": {"addr:city": "\uc11c\uc6b8\ud2b9\ubcc4\uc2dc", "addr:district": "\uc885\ub85c\uad6c", "addr:housenumber": "57", "addr:postcode": "03060", "addr:street": "\uc728\uace1\ub85c", "addr:subdistrict": "\uc7ac\ub3d9", "amenity": "bank", "atm": "yes", "branch": "\uc7ac\ub3d9\uc9c0\uc810", "brand": "\uc6b0\ub9ac\uc740\ud589", "brand:en": "Woori Bank", "brand:ko": "\uc6b0\ub9ac\uc740\ud589", "brand:wikidata": "Q494369", "brand:wikipedia": "en:Woori Bank", "name": "\uc6b0\ub9ac\uc740\ud589", "name:en": "Woori Bank", "name:ko": "\uc6b0\ub9ac\uc740\ud589", "opening_hours": "Mo-Su 07:00-23:30", "phone": "+82 02-732-1136"}}, {"type": "node", "id": 3806615940, "lat": 37.5754258, "lon": 126.9731148, "tags": {"addr:city": "\uc11c\uc6b8\ud2b9\ubcc4\uc2dc", "addr:district": "\uc885\ub85c\uad6c", "addr:housenumber": "130", "addr:postcode": "03170", "addr:street": "\uc0ac\uc9c1\ub85c", "addr:street:ko-Latn": "Donhwamun-ro", "addr:subdistrict": "\uc801\uc120\ub3d9", "amenity": "cafe", "contact:website": "beautifulcoffee.org", "cuisine": "coffee_shop", "internet_access": "wlan", "internet_access:fee": "no", "internet_access:password": "yes", "name": "\ucee4\ud53c\ube48 \ud558\ub098\uc740\ud589\uacbd\ubcf5\uad81\uc5ed\uc810", "name:en": "Coffee Bean", "name:ko": "\ucee4\ud53c\ube48 \ud558\ub098\uc740\ud589\uacbd\ubcf5\uad81\uc5ed\uc810", "phone": "+82 02-733-5188", "smoking": "no"}}, {"type": "node", "id": 3817106946, "lat": 37.5844306, "lon": 126.9968005}, {"type": "node", "id": 3817106947, "lat": 37.584512, "lon": 126.9963784}, {"type": "node", "id": 3817106950, "lat": 37.5845534, "lon": 126.9968547}, {"type": "node", "id": 3817106952, "lat": 37.5846275, "lon": 126.9969219}, {"type": "node", "id": 3817106954, "lat": 37.5847253, "lon": 126.9956412}, {"type": "node", "id": 3817106955, "lat": 37.5848051, "lon": 126.9969406}, {"type": "node", "id": 3817106960, "lat": 37.5852287, "lon": 126.995124}, {"type": "node", "id": 3817106961, "lat": 37.5851041, "lon": 126.9969537}, {"type": "node", "id": 3817106962, "lat": 37.5851899, "lon": 126.9969257}, {"type": "node", "id": 3817106964, "lat": 37.5860929, "lon": 126.9945441}, {"type": "node", "id": 3817106966, "lat": 37.5863282, "lon": 126.9964942}, {"type": "node", "id": 3817106967, "lat": 37.5864688, "lon": 126.9962607}, {"type": "node", "id": 3817106968, "lat": 37.5867071, "lon": 126.9955864}, {"type": "node", "id": 3817106972, "lat": 37.5868803, "lon": 126.9956237}, {"type": "node", "id": 3817106990, "lat": 37.5878084, "lon": 126.9947757}, {"type": "node", "id": 3817106992, "lat": 37.5881607, "lon": 126.9945254},